stopId,stopName,lat,lng
166,Bến xe An Sương,10.8437376022339,106.613372802734
35,Bến xe buýt Sài Gòn,10.7676763534546,106.689361572266
167,Bitis,10.838891,106.617347
7276,Tôn Thất Tùng,10.7676696777344,106.690940856934
7277,Nguyễn Thị Nghĩa,10.768788,106.693699
172,Chùa Lạc Quang,10.834497,106.620212
7278,Trường Emst Thalmann,10.7695035934448,106.695587158203
168,Chùa Vĩnh Phước,10.83202,106.621794
169,Cầu Tham Lương - Siêu thị Thiên Hòa,10.82624,106.62586
7266,Trạm Trung chuyển trên đường Hàm Nghi,10.7708959579468,106.700805664062
7693,Nam Kỳ Khởi Nghĩa,10.770875,106.701354
174,Trạm Dệt Thành Công,10.822315,106.629825
173,Trạm KCN Tân Bình,10.819386,106.630615
1256,Chợ Cũ,10.7708110809326,106.701995849609
176,Ngã 3 Chế Lan Viên,10.817114,106.631472
4271,"Đền Thờ Ấn Giáo, Pasteur",10.7735948562622,106.701393127441
175,Chế Lan Viên,10.812878,106.632748
2724,Lê Thánh Tôn,10.775088,106.700768
177,Trạm Đài Liệt Sỹ,10.808209,106.634262
4272,Lý Tự Trọng,10.777089,106.699657
178,Thượng Uyển,10.806144,106.636055
4273,Lê Duẫn,10.778308,106.698333
180,Ngã tư Tân Kỳ Tân Quý,10.803541,106.637887
4274,Nguyễn Thị Minh Khai,10.779782,106.696659
181,ETown,10.802371,106.640253
243,Đại học Kiến Trúc,10.781804,106.694579
179,Ngã ba Bình Giã,10.802055,106.644292
244,Điện Biên Phủ,10.783419,106.692749
183,Công ty Lô Hội,10.8015441894531,106.650413513184
245,Võ Thị Sáu,10.784924,106.691145
182,Pico Plaza,10.801254,106.653637
246,Nhà thiếu nhi thành phố,10.7855825424194,106.689613342285
185,Ngã ba Út tịch,10.800985,106.656679
247,Viện Pasteur,10.785577,106.688683
184,Siêu thị Maximart Cộng Hòa,10.800833,106.658819
248,Trần Quốc Toản,10.787047,106.687133
187,Công viên Hoàng Văn Thụ,10.800469,106.663578
250,Lý Chính Thắng,10.789245,106.684746
186,Bảo Tàng Miền Đông,10.8002367019653,106.666374206543
249,Chùa Vĩnh Nghiêm,10.790694,106.683125
188,Cây xăng Quân khu 7,10.799589,106.66847
251,Ngã tư Trần Huy Liệu,10.793555,106.679236
190,Bệnh viện Quận Phú Nhuận,10.798282,106.670744
252,Trung tâm văn hóa Quận Phú Nhuận,10.795421,106.676093
191,Cổng Xe lửa,10.796596,106.673609
253,Cổng xe lửa,10.79677,106.673797
189,Trung tâm Văn hóa Quận Phú Nhuận,10.795236,106.675894
254,Bệnh viện Quận Phú Nhuận,10.798525,106.670793
193,Ngã tư Trần Huy Liệu,10.793276,106.679167
255,Cây xăng Quân khu 7,10.799642,106.66891
192,Chùa Vĩnh Nghiêm,10.790381,106.683022
256,Cổng trước SVĐ Quân Khu 7,10.800848,106.66678
196,Trần Quốc Toản,10.786831,106.686897
257,Công viên Hoàng Văn Thụ,10.802403,106.664221
194,Viện Pasteur,10.785351,106.688474
258,Vòng xoay Lăng Cha Cả,10.801365,106.662312
198,Điện Biên Phủ,10.783116,106.69099
259,Siêu thị Maximark Cộng Hòa,10.801038,106.659168
195,Coop Mart Nguyễn Đình Chiểu,10.78113,106.693152
260,Nhà hát Quân Đội,10.801238,106.656754
197,Trường THPT Lê Quý Đôn,10.779844,106.69452
261,Ngân hàng Quân đội,10.801412,106.654817
200,Tòa án Nhân dân Thành Phố,10.776052,106.698647
262,Công ty Lô Hội,10.801728,106.651127
199,Chùa Ông,10.773957,106.699722
263,Ngã tư Hoàng Hoa Thám,10.802102,106.646953
201,Trường CĐKT Cao Thắng,10.771416,106.700851
264,Ngã ba Bình Giã,10.802276,106.644512
82,Trạm Trung chuyển trên đường Hàm Nghi,10.771243,106.699326
265,ETown,10.802571,106.640967
7273,Khách sạn New World,10.770964,106.695946
266,Thượng Uyển,10.806313,106.636192
7274,Nguyễn Thị Nghĩa,10.769952,106.693495
268,Mũi tàu Cộng Hòa,10.808078,106.634696
267,Ngã ba Chế Lan Viên,10.8122043609619,106.633346557617
7275,Tôn Thất Tùng,10.768761,106.690469
270,UBND Phường 15,10.818332,106.631461
271,Khu Công Nghiệp Tân Bình,10.822452,106.630254
272,Cầu Tham Lương - Siêu thị Thiên Hòa,10.8269567489624,106.625831604004
273,Chùa Vĩnh Phước,10.828627,106.624594
275,Chùa Lạc Quang,10.834781,106.620614
277,Bitis,10.838222,106.618398
1115,Bến xe An Sương,10.845803,106.613517
1239,Bến xe An Sương,10.845187,106.613522
8,Bến xe Chợ Lớn,10.7512531280518,106.652565002441
33,Công Trường Mê Linh,10.7767896652222,106.705856323242
1,Chu Văn An,10.750232,106.652554
79,Bến Bạch Đằng,10.773299,106.706359
2,Chợ Kim Biên,10.750732,106.655075
76,Cục Hải Quan Thành Phố,10.770885,106.705549
3,Bưu điện Quận 5,10.7513675689697,106.659202575684
3691,Chợ Cũ,10.771006,106.703108
5,Rạp Đại Quang,10.752566,106.658937
2028,Trường Cao Thắng,10.7710428237915,106.701850891113
4,Lương Nhữ Học,10.752962,106.660418
4223,Trạm Trung chuyển trên đường Hàm Nghi,10.771043,106.699514
7,Triệu Quang Phục,10.7530879974365,106.662078857422
7564,Bảo tàng Mỹ Thuật,10.769251,106.699669
9,Đại học Sư phạm Thể dục thể thao,10.753341,106.663486
120,Trường Ernst Thalmann,10.768772,106.695923
121,KTX Trần Hưng Đạo,10.767363,106.694695
12,Siêu thị Điện máy Chợ Lớn,10.753626,106.664913
122,Rạp Hưng Đạo,10.765832,106.693375
6,Ngô Quyền,10.754,106.666882
10,Chung cư Nguyễn Trãi,10.754337,106.668572
123,Bệnh viện Răng Hàm Mặt,10.763918,106.691696
124,Trần Đình Xu,10.762262,106.690247
11,Siêu thị Điện máy,10.754023,106.669418
125,Tổng Cty Samco,10.759409,106.687798
14,Nhà Văn hóa Quận 5,10.753025,106.668588
16,Đồng Khánh,10.752677,106.670412
126,Chợ Nanci,10.757467,106.686035
17,An Bình,10.752977,106.672837
127,Nguyễn Biểu,10.7558870315552,106.682830810547
128,Trường Cao đẳng Kinh tế Đối ngoại,10.7556228637695,106.681831359863
13,Rạp Đồng Tháp,10.753784,106.675937
129,Trần Bình Trọng,10.755064,106.679794
15,Bệnh viện Chấn Thương Chỉnh hình,10.754421,106.678271
19,Trần Bình Trọng,10.754912,106.680041
130,Bệnh viện Chấn thương Chỉnh hình,10.754537,106.677847
20,Nguyễn Biểu,10.756066,106.68437
131,Rạp Đồng Tháp,10.7539844512939,106.675827026367
18,Chợ Nanci,10.75699,106.685883
134,Rạp Đống Đa,10.753573,106.674237
22,Tổng Cty Samco,10.759734,106.688254
132,Đồng Khánh,10.752983,106.67149
21,Sở PCCC,10.760656,106.689096
23,Hồ Hảo Hớn,10.762395,106.690636
136,Ngô Quyền,10.752477,106.666174
24,Bệnh Viện Răng Hàm Mặt,10.763567,106.691612
133,Tản Đà,10.752292,106.663706
25,Rạp Trần Hưng Đạo,10.76483,106.692722
135,Triệu Quang Phục,10.75206,106.660536
26,KTX Trần Hưng Đạo,10.767064,106.694824
137,Bưu điện Quận 5,10.751381,106.658894
27,Nguyễn Kim,10.768327,106.695847
138,Hải Thượng Lãn Ông,10.750948,106.658358
139,Chợ Kim Biên,10.751128,106.655086
32,Hồ Tùng Mậu,10.770722,106.704074
31,Bến Bạch Đằng,10.774094,106.706654
34,Công Trường Mê Linh,10.775997,106.705822
7208,Bến xe Biên Hòa,10.954127,106.808953
334,Big C,10.887349,106.774583
2393,Tháp Mười,10.750326,106.653036
335,Chùa Từ Quang,10.885494,106.772271
336,Đường số 8,10.882096,106.769396
338,Thành thất Cao Đài Linh Xuân,10.880158,106.767744
337,Chợ Linh Xuân,10.877611,106.766403
279,Bệnh viện Chợ Rẫy,10.7571086883545,106.658386230469
340,Cầu vượt Linh Xuân,10.874279,106.765366
281,Bệnh viện Chợ Rẫy,10.758079,106.660128
339,Cầu vượt Linh Xuân,10.874474,106.762095
282,Lý Thường Kiệt,10.758443,106.662006
341,Giày Thái Bình-Bình Đường,10.875454,106.758689
283,Chung cư 155 Nguyễn Chí Thanh,10.759281,106.666056
343,Giày Thái Bình,10.875738,106.757305
284,Trường Kinh tế Công nghệ,10.7596492767334,106.668022155762
342,Bến xe Lam Hồng,10.876049,106.755631
285,Trường Khiếm thị Nguyễn Đình Chiểu,10.760582,106.669511
344,Cầu vượt Sóng Thần,10.874115,106.746528
286,Hòa Hảo,10.762933,106.671093
346,Chợ Tam Hải,10.873373,106.744291
288,Chợ Lê Hồng Phong,10.764703,106.675444
345,Hồ Bơi,10.872177,106.739913
3164,Lê Hồng Phong,10.761252,106.676592
348,Chợ Tam Bình,10.870828,106.734474
287,Phạm Viết Chánh,10.766214,106.682533
347,Chợ đầu mối nông sản Thủ Đức,10.86812,106.729158
290,Bệnh viện Từ Dũ,10.768709,106.685024
349,Ngã 4 Bình Phước,10.863809,106.72451
289,Tôn Thất Tùng,10.77185,106.687943
350,Hồ bơi Mèo Mun,10.861345,106.724396
292,Sở Y Tế,10.774179,106.690158
353,UBND P.Hiệp Bình Phước,10.859791,106.723782
242,Nhà Văn Hóa Lao Động,10.777097,106.692757
351,Trạm y tế P. Hiệp Bình Phước,10.856024,106.722343
291,Pasteur,10.781031,106.696434
294,Mạc Đỉnh Chi,10.784191,106.699503
355,Ngã 3 Đường Hiệp Bình,10.852579,106.720719
352,Ngã 3 Hiệp Bình,10.848727,106.718346
296,Đinh Tiên Hoàng,10.786146,106.70137
358,Cân Nhơn Hòa,10.844473,106.718086
293,Thảo Cầm Viên,10.789598,106.70459
354,Đường số 4,10.84109,106.716858
295,Cầu Thị Nghè,10.790669,106.705597
359,Đường số 3,10.83877,106.714915
298,Nhà Thờ Thị Nghè,10.793418,106.708156
297,Trung tâm Dưỡng Lão,10.796533,106.71057
356,Cầu Ông Dầu,10.835822,106.713745
357,Trạm xăng dầu,10.83294,106.71389
300,Trường trung học Gia Định,10.798999,106.711203
360,UBND P.Hiệp Bình Chánh,10.830039,106.714027
299,Ngã Ba Hàng Xanh,10.803262,106.711509
361,Cổng vào-Bến xe Miền Đông,10.816661,106.711257
302,Đài Liệt sĩ,10.808831,106.711965
362,Ngã Tư Nguyễn Xí,10.812625,106.709223
301,Siêu thị Coop Mart,10.810791,106.71241
363,Ngã Tư Chu Văn An,10.809759,106.709143
305,Cổng ra - Bến xe Miền Đông 1,10.813853,106.712791
364,Cầu Đinh Bộ Lĩnh,10.806908,106.709341
304,Trường TH Bình Triệu,10.829247,106.71434
365,Trạm xăng dầu,10.804421,106.709395
309,Trạm xăng dầu,10.832655,106.714149
366,Chợ Hàng Xanh,10.802793,106.710511
306,Cầu Ông Dầu,10.836135,106.714012
310,Đường số 3,10.838815,106.715317
368,Trường trung học Gia Định,10.79981,106.711037
367,Trường Tiểu học Hồng Hà,10.797328,106.710591
312,Đường số 4,10.841072,106.71714
369,Ngã ba Nguyễn Cửu Vân,10.79511,106.709443
307,Cân Nhơn Hòa,10.844687,106.718307
373,Nhà thờ Thị Nghè,10.793661,106.708054
308,Ngã 3 Hiệp Bình,10.848944,106.718704
370,Thảo Cầm Viên,10.790694,106.705259
314,Ngã 3 Đường Hiệp Bình,10.852921,106.721222
316,Trạm y tế Hiệp Bình Phước,10.855787,106.722504
374,Đài truyền hình,10.787157,106.702011
371,Nhà thờ Mạc Ty Nho,10.7863969802856,106.701293945312
311,UBND P.Hiệp Bình Phước,10.858809,106.723663
372,Phùng Khắc Khoan,10.784048,106.698586
313,Hồ Bơi,10.861172,106.724564
318,Ngã 4 Bình Phước,10.863845,106.724792
378,Hồ Con Rùa,10.7833137512207,106.696411132812
375,Sân Phan Đình Phùng,10.781172,106.694402
315,Ngã ba mũi tàu đường Gò Dưa,10.86689,106.727425
377,Bảo tàng chứng tích chiến tranh,10.779143,106.69254
320,Chợ Đầu Mối,10.86831,106.730198
376,Trần Quốc Thảo,10.777889,106.691365
317,Chợ Tam Bình,10.87086,106.73538
322,Hồ Bơi,10.871766,106.739666
379,Đại học Mở,10.7764177322388,106.690040588379
381,Nguyễn Thị Minh Khai,10.775102,106.690186
319,Chợ Tam Hải,10.872935,106.744081
321,Cầu vượt Sóng Thần,10.873905,106.747128
380,Cách Mạng Tháng Tám,10.7734203338623,106.689018249512
383,Tôn Thất Tùng,10.77079,106.686634
323,Bến xe Lam Hồng,10.875706,106.75562
382,Bệnh viện Từ Dũ,10.768946,106.684883
325,Giày da Thái Bình,10.875353,106.757466
324,Cầu vượt Linh Xuân,10.873973,106.762476
89,Trung ương Hội Chữ thập đỏ TP,10.767723,106.683657
90,Nhà sách Minh Khai,10.766395,106.68238
330,Cầu vượt Linh Xuân,10.874434,106.765579
385,Công viên Âu Lạc,10.764877,106.680443
327,Chợ Linh Xuân,10.877382,106.766628
329,Thánh thất Cao Đài Linh Xuân,10.88015,106.768066
384,Ngã tư Trần Bình Trọng,10.7639131546021,106.67896270752
387,Ngã tư Lê Hồng Phong,10.762606,106.676967
332,Đường số 8,10.881807,106.769487
331,Chùa Từ Quang,10.885452,106.772568
386,Chợ Lê Hồng Phong,10.764429,106.67569
333,Big C,10.887267,106.774879
388,Hòa Hảo,10.763286,106.671168
390,Trường Khiếm thị Nguyễn Đình Chiểu,10.760857,106.669525
389,Nguyễn Tiểu La,10.7597389221191,106.667976379395
392,Ngã tư Ngô Quyền,10.759228,106.665171
391,Nhà máy Bia Sài Gòn,10.759078,106.66452
393,Bệnh viện Răng Hàm Mặt,10.758364,106.660828
395,Bệnh viện Chợ Rẫy,10.755381,106.658369
397,Rạp Đại Quang,10.752445,106.658792
75,THẠNH LỘC,10.89288,106.673427
3255,Chợ Đường,10.897452,106.689048
3208,Chùa Báo Ấn,10.89485,106.688485
3257,Cầu Phú Long,10.892611,106.687229
7265,Trạm Trung chuyển trên đường Hàm Nghi,10.770911,106.700259
3205,Cầu Ông Dung,10.888945,106.685105
3261,Cây xăng Thanh Bình,10.886327,106.682879
3260,Trường Nguyễn Văn Thệ,10.88423,106.680905
3262,Trường Điện Lực 2,10.881117,106.679226
7588,Giao lộ Hàm Nghi - Tôn Thất Đạm,10.77078,106.703038
3263,Chợ Thạnh Xuân,10.878983,106.678265
204,Ga ra Thanh Hậu,10.875074,106.67672
205,Vườn kiểng Quang Dũng,10.871977,106.676785
206,Cây xăng Tài Lộc,10.868015,106.678233
207,Đình thần Giao Khẩu,10.864886,106.680341
42,Nhà Hát Thành Phố,10.778031,106.703559
44,Bệnh viện Nhi Đồng 2,10.779881,106.701536
208,Ngã tư Ga,10.857984,106.679649
211,Nhà hàng Bến Xưa,10.853474,106.679006
39,Bưu Điện Thành Phố,10.780645,106.700673
209,Cầu An Lộc,10.848838,106.678539
41,Sở Công Thương,10.784297,106.696526
210,Bến Đò,10.847015,106.67826
43,Công viên Lê Văn Tám,10.787427,106.692599
46,Nhà thờ Tân Định,10.789215,106.690399
212,Bưu điện An Nhơn,10.843975,106.677214
47,Chợ Tân Định,10.790456,106.688843
214,Ngã tư An Nhơn,10.841436,106.676313
45,Cầu Kiệu,10.79365,106.68481
215,Đài Liệt sĩ,10.839518,106.675707
49,Chợ Phú Nhuận,10.795062,106.683018
216,Trường Vinhempic,10.836978,106.675395
48,Trường Cao đẳng Kinh tế Đối ngoại,10.79795,106.680905
218,Cư xá Lam Sơn,10.834939,106.675535
50,Ngã tư Phú Nhuận,10.799713,106.680138
217,Ngã tư Phan Văn Trị,10.83163,106.676919
51,Nhà Truyền Thông,10.8022317886353,106.679244995117
220,Cầu vượt ngã sáu Gò Vấp,10.828532,106.678839
52,Ngã ba Hồ Văn Huê,10.805259,106.678759
219,Cầu vượt ngã sáu Gò Vấp,10.823738,106.678968
221,Bệnh Viện 175,10.820044,106.678727
53,Coop Mart Nguyễn Kiệm,10.807077,106.678528
54,Chùa Vạn Hạnh,10.810349,106.67856
223,t555Chợ Tân Sơn Nhất,10.8167724609375,106.678596496582
55,Trường Cao đẳng Hải Quan,10.812475,106.678711
224,Đầu công viên Gia Định,10.813442,106.677681
56,Cầu vượt Nguyễn Thái Sơn - Nguyễn Kiệm,10.816282,106.680443
225,Cuối công viên Gia Định,10.809906,106.674741
226,Đầu Đường Đào Duy Anh,10.807978,106.674057
57,Ngã ba Phạm Ngũ Lão,10.819712,106.683147
60,Cầu vượt ngã sáu Gò Vấp,10.824607,106.681221
228,Cuối Đường Đào Duy Anh,10.805891,106.677177
58,Cầu vượt ngã sáu Gò Vấp,10.828991,106.678775
230,Ngã ba Đào Duy Anh,10.804858,106.677729
62,Ngã tư Phan Văn Trị,10.832547,106.676699
227,Tháp Nước,10.802434,106.676366
67,Cư xá Lam Sơn,10.836114,106.67561
229,Trung tâm hội nghị tiệc cưới White Palace,10.800074,106.675025
63,Đài Liệt sĩ,10.839297,106.67583
232,Ngã tư Phú Nhuận,10.799088,106.679354
72,Ngã tư An Nhơn,10.842268,106.676833
4755,Trường Cao đẳng Kinh tế Đối ngoại,10.798345,106.680567
64,Bến Đò,10.84691,106.678496
4756,Chợ Phú Nhuận,10.795194,106.682605
4754,Cầu An Lộc,10.849117,106.678802
4757,Cầu Kiệu,10.793081,106.685277
73,Nhà hàng Bến Xưa,10.852642,106.679285
231,Trần Quang Khải,10.790939,106.68795
213,Ngã tư Ga,10.857331,106.679907
234,Chợ Tân Định,10.788972,106.690445
68,Đình thần Giao Khẩu,10.865217,106.680433
233,Công viên Lê Văn Tám,10.787174,106.692653
74,Cây xăng Tài Lộc,10.86831,106.678319
235,Trần Cao Vân,10.784023,106.696625
69,Vườn kiểng Quang Dũng,10.871371,106.676978
236,Lê Duẩn,10.78191,106.69902
237,Bệnh viện Nhi Đồng 2,10.779385,106.701744
70,Ga ra Thanh Hậu,10.875454,106.677032
71,Chợ Thạnh Xuân,10.878493,106.678201
238,Nhà Hát Thành Phố,10.777873,106.70351
77,Trường Điện lực 2,10.880785,106.679188
239,Công Trường Mê Linh,10.775976,106.705635
3204,Trường Nguyễn Văn Thệ,10.884562,106.681296
3203,Cây xăng Thanh Bình,10.886253,106.68305
3206,Cầu Ông Dung,10.88876,106.685185
3259,Cầu Phú Long,10.892079,106.687031
3207,Chùa Báo Ấn,10.8948602676392,106.688621520996
7270,Trạm Trung chuyển trên đường Hàm Nghi,10.771096,106.699948
3210,Chợ Đường,10.897721,106.689101
7269,Trạm Trung chuyển trên đường Hàm Nghi,10.771117,106.699514
394,Đại học Nông Lâm,10.8681831359863,106.787445068359
396,ĐH Nông Lâm,10.866912,106.790283
464,Bến xe Chợ Lớn,10.753331,106.652334
398,Khu Công nghệ cao Q9,10.860218,106.791138
470,Thuận Kiều Plaza,10.754111,106.656749
4392,Xa Lộ Hà Nội,10.858716,106.788633
437,Bệnh viện Chợ Rẫy,10.754553,106.659232
401,Công ty Cocacola,10.8564834594727,106.784965515137
439,Đại học Y Dược,10.75536,106.663191
400,Trường Đại học Sư phạm Kỹ thuật,10.849871,106.772105
440,Bệnh viện Đại học Y Dược,10.755671,106.664683
402,Siêu thị Nguyễn Kim,10.849805,106.768837
465,Bệnh viện Nguyễn Tri Phương,10.756714,106.670492
403,Nhà thiếu nhi Thủ Đức,10.850556,106.766794
469,Chợ An Đông,10.757057,106.672182
404,Cao đẳng xây dựng 2,10.850808,106.764101
466,Huỳnh Mẫn Đạt,10.758374,106.676576
405,Ngã ba Chương Dương,10.850645,106.760201
472,Chợ Bầu Sen,10.759138,106.678453
406,Làng Thiếu Niên Thủ Đức,10.849723,106.758698
467,Đại học Sài Gòn,10.760672,106.682321
408,Trường THPT Quận Thủ Đức,10.848207,106.759613
474,ĐH Khoa Học Tự Nhiên,10.7622919082642,106.683052062988
407,Công ty may Sài Gòn,10.844107,106.762133
471,Trường Lê Hồng Phong,10.764503,106.68216
411,Công ty Sanofi Aventis,10.84132,106.764354
409,Tu viện Quảng Đức,10.839349,106.766338
410,Ngã 4 Bình Thái,10.8349447250366,106.765243530273
413,Công ty truyền tải điện 4,10.831214,106.763195
412,Ngã 4 Tây Hòa (RMK),10.825366,106.759998
414,Xi măng Hà Tiên,10.820576,106.758142
415,Cát Lái,10.802925,106.747948
416,Metro Quận 2,10.802134,106.7434
417,Thảo Điền,10.801309,106.738762
418,Cầu Đen,10.800451,106.73436
419,Cầu Sài Gòn,10.798893,106.719571
420,Khu Du lịch Văn Thánh,10.800274,106.717227
421,Đại học Hutech,10.801228,106.714856
423,Cây xăng dầu,10.801697,106.712834
476,Đại học Hutech,10.800827,106.714255
473,Khu Du lịch Văn Thánh,10.799531,106.717404
475,Cầu Sài Gòn,10.798525,106.719496
477,Cầu Đen,10.799978,106.7342
478,Thảo Điền,10.800838,106.738899
480,Metro Quận 2,10.801584,106.742928
479,Cát Lái,10.802592,106.748089
482,Xi măng hà tiên - trạm thu phí,10.819206,106.758394
481,Ngã 4 Tây Hòa (RMK),10.825972,106.760775
485,Trạm xây dựng,10.829955,106.76312
483,Khu QLGTDT số 2,10.833249,106.764778
484,Tu viện Quảng Đức,10.838786,106.766719
486,Đại học Kiến trúc,10.8416519165039,106.764175415039
489,Công ty may Sài Gòn,10.843897,106.762466
491,Trường mầm non Vành Khuyên,10.8478879928589,106.760055541992
488,Làng Thiếu Niên Thủ Đức,10.850015,106.758781
493,Ngã ba Chương Dương,10.850419,106.760931
490,Cao đẳng xây dựng 2,10.85065,106.764439
492,Siêu thị Nguyễn Kim,10.849686,106.769112
497,Trường ĐHSP Kỹ Thuật,10.8495969772339,106.771919250488
494,Công an Quận 9,10.849966,106.775066
425,Trường THPT Lê Hồng Phong,10.764456,106.681946
7159,Trạm Hutech - Khu Công nghệ cao,10.856398,106.785382
424,Đại học Khoa học Tự nhiên,10.763354,106.682388
495,Khu Công nghệ cao quận 9,10.858511,106.788869
426,Đại học Sư Phạm,10.76103,106.68267
500,Đại học Nông Lâm,10.866961,106.791101
429,Chợ Bầu Sen,10.759407,106.678764
427,Huỳnh Mẫn Đạt,10.757984,106.675272
430,Chợ An Đông,10.757536,106.673534
428,Bệnh viện Nguyễn Tri Phương,10.756967,106.670653
432,Công viên Văn Lang,10.757151,106.669613
431,Công viên Văn Lang,10.757257,106.668566
433,Bệnh viện Phạm Ngọc Thạch,10.755897,106.664511
434,Hùng Vương Plaza,10.755196,106.661072
436,Bệnh viện Chợ Rẫy,10.754875,106.659501
435,Thuận Kiều Plaza,10.75458,106.657934
438,Dương Tử Giang,10.754158,106.65552
468,BÃI HẬU CẦN SỐ 1,10.823601,106.69188
539,Bãi hậu cần số 1,10.823964,106.69195
540,UBND Phường 5,10.825513,106.688259
541,Trường Đại học Công nghiệp,10.8227787017822,106.685279846191
543,Ngã ba Phạm Ngũ Lão,10.821045,106.683925
441,Trường Trần Khai Nguyên,10.758706,106.66928
442,Đại học Kinh tế,10.761386,106.668564
444,Trường Hoàng Văn Thụ,10.763073,106.668213
443,Chợ Nhật Tảo,10.765397,106.667702
446,Học viện Quân y,10.767052,106.667313
158,Bệnh viện Nhi Đồng 1,10.769518,106.670609
160,Nhà thờ Vinh Sơn,10.770269,106.672166
545,Nhà thờ Phú Nhuận,10.798646,106.677525
159,Nhà hát Hòa Bình,10.771855,106.674805
549,Công an Quận Phú Nhuận,10.795658,106.677702
162,Học viện Hành chính Quốc gia,10.77323,106.677015
550,Ngã tư Nguyễn Văn Trỗi,10.792667388916,106.677886962891
445,Bệnh viện Bình Dân,10.774421,106.67885
552,Bệnh viện An Sinh,10.791171,106.677986
448,Siêu thị Maximark,10.776977,106.68099
554,Lê Văn Sỹ,10.788544,106.678123
7175,Ga Hòa Hưng,10.782305,106.677884
557,Chợ Nguyễn Văn Trỗi,10.786853,106.679322
447,Nhà thờ Dòng chúa Cứu thế,10.780805,106.681305
451,Trần Quốc Thảo,10.784504,106.683022
559,Trần Quốc Thảo,10.78456,106.682868
561,Nhà thờ Dòng chúa Cứu thế,10.780704,106.681061
449,Chợ Nguyễn Văn Trỗi,10.787041,106.679535
565,Nguyễn Thông,10.781328,106.679573
453,Trần Quang Diệu,10.788375,106.678319
450,Bệnh viện An Sinh,10.791023,106.678123
452,Ngã Tư Nguyễn Văn Trỗi,10.793028,106.677992
560,Ga Hòa Hưng,10.781528,106.678383
566,Rạch Bùng Binh,10.780645,106.678888
562,Vòng xoay Dân Chủ,10.778592,106.681038
568,Siêu thị Maximark,10.777162,106.680771
563,Bệnh viện Bình Dân,10.774785,106.678947
95,Học viện Hành chính Quốc gia,10.773457,106.676951
94,Học viện Hành chính Quốc gia,10.772661,106.675701
455,Rạp Tân Sơn Nhất,10.80244,106.665924
457,Bãi xe buýt Phổ Quang,10.8054170608521,106.666702270508
97,Nhà hát Hòa Bình,10.771712,106.674202
96,Nhà thờ Vinh Sơn,10.770521,106.67215
454,Cây xăng Quân đội,10.807221,106.668495
99,Bệnh viện Nhi Đồng 1,10.769578,106.670364
456,Trường Đại học Kỹ thuật Công nghệ,10.808204,106.672236
459,Cuối công viên Gia Định,10.809727,106.674929
564,Học viện Quân y,10.766769,106.667259
567,Chợ Nhật Tảo,10.764991,106.667664
458,Ngã ba Đặng Văn Sâm,10.811382,106.676399
570,Trường Hoàng Văn Thụ,10.763371,106.668015
461,Đầu công viên Gia Định,10.813231,106.677949
571,Đại học kinh tế,10.761049,106.668488
569,Ngô Gia Tự,10.758801,106.668062
573,Trung tâm giáo dục thường xuyên,10.757331,106.667016
460,Ngã ba Phạm Ngũ Lão,10.820834,106.68407
463,Trường Đại học Công nghiệp,10.822789,106.685636
462,UBND Phường 5,10.825134,106.687975
496,Bến xe buýt Quận 8,10.7335453033447,106.656356811523
538,Đại học Quốc gia,10.8738050460815,106.802024841309
502,Bùi Minh Trực,10.73646,106.656346
7645,Nhà Văn hoá sinh viên,10.874832,106.800016
7624,Đại học Quốc tế,10.876476,106.80257
499,Cầu Nhị Thiên Đường,10.738769,106.656427
7647,KTX Khu A ĐH Quốc Gia TPHCM,10.8756380081177,106.804916381836
542,Tùng Thiện Vương,10.744513,106.656802
501,Chợ Xóm Củi,10.746073,106.659763
574,Khu DL Suối Tiên,10.8660497665405,106.801116943359
4559,Câu vượt Trạm 2,10.8639,106.797318
544,Bệnh viện Hùng Vương,10.756013,106.662333
503,CoopMart Lý Thường Kiệt,10.759602,106.661351
546,Điện lực Phú Thọ,10.76523,106.659763
504,Nhà thi đấu Phú Thọ,10.767367,106.659065
505,Bệnh viện Trưng Vương,10.769652,106.658524
506,Đại học Bách Khoa,10.772603,106.657698
547,Bưu Điện Phú Thọ,10.776487,106.656625
575,Trạm Cầu ngang,10.847199,106.751587
578,Công an Phường Linh Đông,10.845116,106.749763
507,Ngã ba Thành Thái,10.7788,106.655912
548,Siêu thị Nguyễn Kim - CMC Tân Bình,10.781072,106.65529
577,Trạm xăng 27-7,10.841721,106.74659
579,Trường Cao đẳng Vinatex,10.840851,106.744548
551,Cây xăng Đôi,10.784002,106.654431
583,Nút giao Linh Đông -PVĐ,10.84077,106.742682
508,Chợ Tân Bình,10.786222,106.653786
585,Chùa An Lạc,10.837284,106.732328
509,Bệnh viện chỉnh hình và Phục hồi chức năng,10.788689,106.653076
584,Cá sấu Hoa Cà,10.833634,106.727916
553,Bệnh viện Thống Nhất,10.792101,106.653074
587,Đường số 20,10.828232,106.720988
510,Bệnh viện Quận Tân Bình,10.7947196960449,106.655197143555
586,Ngã tư Bình Triệu,10.826557,106.715848
555,Nhà hàng Đông Phương,10.7985563278198,106.659217834473
511,Siêu Thị Big C,10.799942,106.669462
556,Khách Sạn Tân Sơn Nhất,10.799805,106.670873
512,Công an Phú Nhuận,10.799542,106.673818
588,Nhà thờ Hàng Xanh,10.803177,106.708032
589,Chùa Bồ Đề,10.803483,106.704015
558,Ngã tư Phan Xích Long,10.800416,106.681741
513,Ngã Tư Thích Quảng Đức,10.8026819229126,106.684074401855
590,Tòa Án nhân dân Quận Bình Thạnh,10.803873,106.701187
514,Trường Đại học Văn Hiến,10.803847,106.686108
592,Chợ Bà Chiểu,10.803125,106.699374
515,Bệnh Viện Phước An,10.803615,106.687916
591,UBND Quận Bình Thạnh,10.802819,106.695786
594,Bệnh Viện Gia Định,10.803119,106.693543
7262,Công viên Văn hóa Phú Nhuận,10.803251,106.690384
593,PCCC quận Bình Thạnh,10.803362,106.691741
422,UBND Quận Bình Thạnh,10.8026657104492,106.695152282715
595,Bệnh viện Phước An,10.803878,106.687637
517,Lăng Ông Bà Chiểu,10.802408,106.697159
596,Đại học Văn Hiến,10.804078,106.686119
518,Chợ Bà Chiểu,10.802893,106.699471
519,Tòa Án nhân dân Quận Bình Thạnh,10.803615,106.701204
597,Ngã Tư Thích Quảng Đức,10.802529335022,106.683609008789
598,Ngã tư Phan Xích Long,10.80088,106.681892
520,Chùa Bồ Đề,10.803293,106.703988
599,Ngã tư Phú Nhuận,10.799325,106.679236
521,Nhà thờ Hàng Xanh,10.803077,106.706713
601,Siêu thị Big C,10.800153,106.669559
522,Cổng ra - Bến xe Miền Đông 3,10.811666,106.712532
600,Vòng xoay Lăng Cha Cả,10.798725,106.659071
523,Ngã tư Bình Triệu,10.82603,106.715655
602,Công an Quận Tân Bình,10.79717,106.657425
524,Đường số 20,10.827878,106.721032
604,Hội Chợ Triển lãm Tân Bình,10.796122,106.655145
603,Trường Phạm Ngũ Lão,10.796032,106.654066
525,Chùa Ưu Đàm,10.830679,106.72476
526,Cá sấu Hoa cà,10.833606,106.728331
606,Cây xăng Đôi,10.794256,106.652184
605,Bệnh viện Thống Nhất,10.792122,106.6528
527,THCS Ngô Chí Quốc,10.83555,106.730713
608,Bệnh viện chỉnh hình và phục hồi chức năng,10.788718,106.652806
528,Chùa An Lạc,10.837484,106.733288
607,Chợ Tân Bình,10.786131,106.653584
529,Cầu Gò Dưa,10.839776,106.740509
610,Siêu thị Nguyễn Kim - CMC Tân Bình,10.782695,106.654571
531,Trường Cao đẳng Vinatex,10.840767,106.744022
532,Trạm xăng 27-7,10.84129,106.746346
609,Trường Nguyễn Thái Bình,10.779233,106.655609
533,Công an phường Linh Đông,10.844781,106.74966
612,Bưu Điện Phú Thọ,10.775314,106.656693
611,Đại Học Bách Khoa(cổng trước),10.771331,106.657829
534,Trạm Cầu Ngang,10.847416,106.75209
535,Chợ Thủ Đức,10.850158,106.754372
613,Bệnh viện Trưng Vương,10.769639,106.658295
614,Điện Lực Phú Thọ (Nhà hàng phong lan),10.765792,106.659363
615,Chợ Nhật Tảo,10.761718,106.660484
616,Bệnh viện Hùng Vương,10.755702,106.66221
498,Chợ chiều,10.853511,106.780474
617,Tùng Thiện Vương,10.74483,106.656926
618,Chùa Pháp Quang,10.738642,106.656142
536,Cầu Vượt Trạm 2,10.863595,106.797538
619,Bùi Minh Trực,10.73646,106.656126
537,Suối Tiên,10.866113,106.802081
1919,Nghĩa trang liệt sĩ TP.HCM,10.873515,106.809458
7644,Vành đại ĐHQG TPHCM,10.874405,106.806995
7648,KTX Khu A ĐH Quốc Gia TPHCM,10.875886,106.804968
7623,Đại học Quốc tế,10.876655,106.802537
3043,Hưng Long,10.637669,106.647307
672,Nguyễn Văn Long,10.639393,106.644459
621,Trường Võ Văn Tần,10.752271,106.64975
620,Cây Mai,10.753689,106.64926
674,Nguyễn Văn Thời,10.640954,106.6416
677,Trạm Xăng Hòa Hiệp,10.642109,106.639454
622,Lò Siêu,10.753952,106.646787
676,Hốc Hưu,10.643933,106.636085
624,Cây Gõ,10.754232,106.644368
625,Hưng Long - Bình Chánh,10.7545576095581,106.641227722168
679,Tân Liễu,10.64601,106.63219
678,Hội Quán Thanh Niên,10.647491,106.629481
623,Tân Hóa,10.754748,106.639089
626,Cầu Ông Buông,10.754732,106.635574
681,Ấp 2,10.649242,106.626177
627,Vòng xoay Phú Lâm,10.753346,106.633365
680,Ủy ban xã Hưng Long,10.651377,106.622009
628,Cư Xá Phú Lâm,10.751475,106.63089
683,Đường Liên ấp 3-4-5,10.652637,106.619589
682,Trạm y tế xã Hưng Long,10.654008,106.616789
629,Hồ Bơi Phú Lâm,10.749589,106.628435
685,Trạm xăng dầu Mười Vũ,10.655869,106.613104
1386,Công Viên Phú Lâm,10.746384,106.624525
117,Vòng xoay Kinh Dương Vương,10.744746,106.622475
684,Phòng khám Thanh Lịch,10.657329,106.610223
116,Bến xe Miền Tây,10.741973,106.619096
687,chợ Hưng Long,10.659011,106.606768
686,Trường Tân Quý Tây,10.65996,106.604794
4150,"428, Kinh Dương Vương",10.741383,106.618377
689,Mầm non Bông Sen,10.662079,106.600594
630,Bệnh viện Triều An,10.739675,106.616392
688,Công ty Thông Hương,10.661831,106.598958
631,Hàng Dương,10.735138,106.613144
691,Minh Quân,10.66016,106.595128
632,SinCo,10.731674,106.611028
633,Hoa hồng,10.729014,106.608276
690,Đình Phước Bình,10.658599,106.591721
634,An Lạc,10.72733,106.605751
693,Xã Tân Quý Tây,10.65726,106.588524
635,Thời trang,10.725466,106.603027
692,Chùa Liên Hoa,10.656206,106.586035
636,Bãi xe Phương Trang,10.721022,106.600342
695,Đinh Đức Thiện - Hương lộ 11,10.656101,106.584646
694,Công ty Tia Sáng,10.657213,106.582854
637,Hưng Nhơn,10.712241,106.598791
697,Điện máy Lộc Đức,10.658847,106.580096
638,Dương Đình Cúc,10.70706,106.598089
696,Bờ Kinh,10.660903,106.576663
639,Nguyễn Hữu Trí,10.696112,106.596415
3435,Trịnh Như Khuê,10.663328,106.571363
640,Nút giao Bình Thuận,10.691884,106.595101
3422,An Phú Tây,10.687614,106.593717
699,Chợ Bình Chánh,10.666301,106.571835
3430,Công ty Thiên Lộc,10.68472,106.592333
698,Trường Trần Đại Nghĩa,10.668742,106.574904
701,Trịnh Như Khuê,10.670197,106.576663
641,Văn phòng Ấp 5,10.681494,106.588969
700,Ô tô Hải Âu,10.675522,106.582333
643,Ô tô Hải Âu,10.676528,106.583154
703,Văn phòng Ấp 5,10.681405,106.58928
642,Bùi Thanh Khiết,10.673877,106.580247
644,Trịnh Như Khuê,10.670561,106.576653
3431,Công ty Thiên Lộc,10.68452,106.59251
3432,An Phú Tây,10.686876,106.593695
645,Trường Trần Đại Nghĩa,10.668874,106.57455
702,Nút giao Bình Thuận,10.691816,106.595428
646,Chợ Bình Chánh,10.66647,106.571503
647,Trịnh Như Khuê,10.663265,106.571159
704,Nguyễn Hữu Trí,10.697161,106.597059
648,Bờ Kinh,10.660914,106.5764
705,Dương Đình Cúc,10.706422,106.598276
706,Hưng Nhơn,10.71202,106.599339
649,Điện máy Lộc Đức,10.658794,106.579973
650,Công ty Tia Sáng,10.657171,106.582661
711,Trần Đại Nghĩa,10.720838,106.600878
651,Hương lộ 11 - Đinh Đức Thiện,10.656021,106.584538
708,Cầu An Lạc,10.7243165969849,106.602340698242
712,Hoa Hồng,10.726583,106.605191
653,Chùa Liên Hoa,10.656058,106.586008
709,Hàng Dương,10.72832,106.607605
652,Xã Tân Quý Tây,10.657102,106.588406
655,Đình Phước Bình,10.658441,106.591641
714,Ủy ban,10.729977,106.610255
710,Lâm Thành,10.734278,106.61298
654,Minh Quân,10.659975,106.594999
657,Công ty Thông Hương,10.661657,106.598877
716,Tên Lửa,10.737541,106.614906
656,Mầm non Bông Sen,10.66191,106.600685
713,Bệnh viện Triều An,10.739665,106.61687
659,Trường Tân Quý Tây,10.659912,106.604617
119,Bến xe Miền Tây,10.741035,106.618468
658,Chợ Hưng Long,10.658847,106.606822
4149,Chợ An Lạc,10.743396,106.62136
661,Phòng khám Thanh Lịch,10.657118,106.610336
140,Kinh Dương Vương,10.744919,106.623162
660,Trạm xăng dầu Mười Vũ,10.655631,106.613297
718,Công viên Phú Lâm,10.747549,106.626257
662,Trạm y tế xã Hưng Long,10.653823,106.616902
715,Hồ Bơi Phú Lâm,10.748914,106.627963
720,Cư xá Phú Lâm,10.751217,106.630914
663,Đường liên ấp 3-4-5,10.652584,106.619316
664,Ủy ban xã Hưng Long,10.651203,106.622046
717,Vòng xoay Phú Lâm,10.75322,106.633542
665,Ấp 2,10.648968,106.626386
724,Cầu Ông Buông,10.754548,106.637995
4159,Hội Quán Thanh Niên,10.64747,106.629074
719,Ngân hàng ACB,10.754295,106.641245
667,Tân Liễu,10.645615,106.632668
721,Trường Nguyễn Đức Cảnh,10.754021,106.644003
723,Chùa Nam Phổ Đà,10.753789,106.645955
666,Hốc Hưu,10.644028,106.635656
669,Trạm Xăng Hòa Hiệp,10.641819,106.639711
722,Lò Siêu,10.753647,106.647323
668,Nguyễn Văn Thời,10.640617,106.641948
671,Nguyễn Văn Long,10.639399,106.644271
278,Bến xe buýt Chợ Lớn - B,10.751185,106.65107
4761,Tân Nhựt,10.706459,106.563038
2238,Chợ Tân Nhựt,10.706048,106.563563
4418,Bãi Sậy,10.7488031387329,106.649299621582
2239,Ngã 3 Trường học,10.703923,106.568112
753,Công viên Phạm Đình Hổ,10.747702,106.647801
755,Minh Phụng,10.747206,106.644534
7142,Bệnh viện Nhi Thành phố,10.708515,106.573026
3723,Đường dẫn Cao tốc,10.702305,106.572044
7040,Bình Tiên,10.743718,106.642393
3725,Đình Phục Đức,10.70036,106.575456
7042,Bà Lài,10.740371,106.636321
757,Cầu Phạm Văn Chí,10.738521,106.635484
3727,Ấp 5,10.699169,106.577446
4354,Phạm Văn Chí,10.739016,106.633564
3728,Xóm Giữa,10.69696,106.578884
7035,Cầu Chợ Đệm,10.6955,106.580526
759,Metro Bình Phú,10.741673,106.630994
7036,Trường Tân Kiên,10.697888,106.586523
762,Đường số 23,10.741972,106.626015
1589,Lý Chiêu Hoàng,10.740065,106.623548
7037,Trạm y tế Tân Kiên,10.700861,106.591737
7038,Thiên Hoàng Long,10.702716,106.59517
7045,Đường 38,10.738347,106.622009
803,Đường Hoàng Ngân,10.724322,106.619906
7039,Quốc lộ 1A,10.705547,106.597633
7583,Trương Đình Hội,10.71971,106.619289
770,Chợ Kiến Đức,10.715794,106.618924
7049,Nhựa Chợ Lớn,10.713564,106.618752
7050,Cầu Nước Lên,10.719552,106.606822
763,Bến Phú Định,10.71135,106.61864
1801,Khu dân cư Hương lộ 5,10.72068,106.611877
1847,Chùa Viên Giác,10.713359,106.616848
1800,Nhựa Long Thành,10.718161,106.613464
1803,Chùa Viên Giác,10.712624,106.616989
1849,Nhựa Long Thành,10.718234,106.613817
1848,Võ Văn Kiệt,10.72069,106.612229
805,Bến Phú Định,10.71144,106.618795
797,Nhựa Chợ Lớn,10.713348,106.618924
4256,Cầu Nước Lên,10.719889,106.606146
807,Chợ Kiến Đức,10.715667,106.619074
801,Trương Đình Hội,10.719183,106.619503
799,Đường Hoàng Ngân,10.723948,106.620083
7030,Dương Đình Cúc,10.705468,106.597397
7044,Đường 38,10.73811,106.622095
7031,Thiên Hoàng Long,10.703001,106.59516
806,Lý Chiêu Hoàng,10.740239,106.623715
7032,Trạm Y tế Tân Kiên,10.70075,106.591431
809,Đường số 23,10.741862,106.626129
7033,Trường Tân Kiên,10.698231,106.587038
811,Metro Bình Phú,10.741578,106.63086
7034,Cầu Chợ Đệm,10.695732,106.580933
3788,Xóm Giữa,10.696902,106.579045
4353,Phạm Văn Chí,10.739275,106.633413
3791,Ấp 5,10.699164,106.577581
1595,Cầu Phạm Văn Chí,10.738384,106.635447
3790,Đình Phục Đức,10.700497,106.575397
7043,Bà Lài,10.740202,106.636246
7041,Bình Tiên,10.743607,106.642415
3793,Đường dẫn Cao tốc,10.702495,106.571792
808,Minh Phụng,10.747059,106.644244
2161,Chợ Tân Nhựt,10.706085,106.563714
810,Công viên Phạm Đình Hổ,10.747728,106.648686
725,Bến xe Miền Tây,10.739486,106.619438
7632,Đại học Khoa học xã hội và Nhân văn,10.873446,106.802334
729,CoopMart,10.74971,106.64283
7651,ĐH Khoa học tự nhiên,10.874352,106.806813
1113,Ngã tư Thủ Đức,10.84828,106.77299
1397,Bệnh viện Nhi Đồng 1,10.767765,106.67038
1909,Ngã 7 Lý Thái Tổ,10.768703,106.675224
726,Đền Trần Hưng Đạo,10.791369,106.695238
731,Cách Mạng tháng 8,10.777009,106.684145
727,Trần Quốc Thảo,10.782294,106.686242
730,Cầu Điện Biên Phủ,10.795115,106.702518
728,CoopMart,10.749815,106.643198
115,Mũi Tàu Phú Lâm,10.745536,106.624686
732,Bến xe Củ Chi,10.9716167449951,106.48210144043
771,Cầu Tân Thái,10.983161,106.36442
734,Bến xe Củ Chi,10.972533,106.480347
5777,Tỉnh lộ 6,10.993435,106.372075
733,Bệnh viện Củ Chi,10.974756,106.475742
772,Trương Thị Kiện,10.993703,106.375471
738,Trạm xăng,10.976133,106.473129
774,đường 687,10.993266,106.379929
735,Công ty phân bón Sinh hóa Củ Chi,10.978179,106.469455
773,Ngã 3 Ông Cống,10.992433,106.3853
7679,Quán cơm 5 Hoàng,10.981133,106.4643
5778,Trương Thị Kiện,10.991676,106.38952
741,Trạm xăng Phước Hiệp 1,10.98305,106.461232
775,Ấp Bình Thượng 1,10.991186,106.393275
777,Ủy Ban nhân dân Xã Thái Mỹ,10.991118,106.397889
736,Trạm y tế Nguyễn Thị Rành,10.991035,106.450378
743,Đối diện Trường Tiểu học Phước Hiệp,10.993424,106.447987
7705,Trường Tiểu học Thái Mỹ,10.991207,106.399986
5779,Trường trung học phổ thông Nguyễn Văn Xơ,10.991139,106.402609
737,Cây xăng Phước Thạnh,10.996789,106.445058
745,UBND xã Phước Thạnh,11.00463,106.431969
778,Trường Mầm non Thái Mỹ,10.991097,106.405458
780,Giáo xứ Mỹ Khánh,10.990949,106.411257
739,Chợ Phước Thạnh,11.005767,106.428146
779,Hẻm 582,10.992892,106.414518
746,Chợ Phước Thạnh,11.005048,106.426697
786,Cổng chào Xã Thái Mỹ,10.994119,106.416675
7707,Trường THCS Phước Thạnh,11.004225,106.424856
781,Cây xăng petrolimet 59,11.000223,106.422581
789,Trường Quang Trung,11.0029,106.423553
740,Trường THPT Quang Trung,11.00323,106.423866
742,Cây xăng petrolimet 59,11.000014,106.422159
748,Cổng chào Xã Thái Mỹ,10.993867,106.415817
782,Chợ Phước Thạnh,11.004793,106.426465
790,Chợ Phước Thạnh,11.005567,106.428069
750,Hẻm 582,10.992703,106.413944
744,Giáo xứ Mỹ Khánh,10.990917,106.409935
783,Ủy Ban nhân dân Xã Phước Thạnh,11.004504,106.431647
752,Trường mầm non Thái Mỹ,10.991251,106.405235
784,ấp cây trôm,10.996617,106.44487
792,Trường Tiểu học Phước Hiệp,10.992698,106.448362
5789,Trường Trung học phổ thông Nguyễn Văn Xơ,10.991364,106.402136
794,UBND xã Phước Hiệp,10.989567,106.451263
7706,ĐD Trường Tiểu học Thái Mỹ,10.991307,106.39967
754,Ủy Ban nhân dân Xã Thái Mỹ,10.991328,106.398463
785,Cây xăng Tài Lộc 3,10.982855,106.461033
756,Ấp Bình Thượng 1,10.991302,106.393857
7680,Quán cơm 5 Hoàng,10.981049,106.463742
747,Trương Thị Kiện,10.991721,106.390312
796,Công ty phân bón sinh hóa Củ Chi,10.977784,106.469632
749,Ngã 3 Ông Cống,10.992471,106.385681
787,Ngã 3 Nguyễn Thị Rành,10.976109,106.472717
788,Bệnh viện Củ Chi,10.973655,106.477443
758,đường 687,10.99353,106.379446
751,Trương Thị Kiện,10.993877,106.37443
963,Bến xe Củ Chi,10.972091,106.48049
760,Tỉnh lộ 6,10.99363,106.372118
946,Bến xe Ngã tư Ga,10.862156867981,106.678359985352
7282,Bến xe buýt Chợ Lớn - A,10.7512588500977,106.652610778809
4774,Nguyễn Thị Nhỏ,10.751802,106.650585
976,Khu QLGTĐT số 3,10.861967,106.674564
964,Tô Ngọc Vân,10.861904,106.671935
897,Tạ Uyên,10.754606,106.65383
965,Trường Mầm non Ngôi Nhà Trẻ Thơ,10.861877,106.667461
896,Trạm Trần Quý - Tạ Uyên,10.758002,106.653603
977,Cơ khí Minh Huy,10.861819,106.661389
153,Tạ Uyên,10.760371,106.653763
966,Đá hoa cương Chí Thành,10.861988,106.657183
969,Quận ủy Quận 12,10.862114,106.653428
154,Lê Đại Hành,10.761562,106.656006
972,Ngã tư Tân Thới Hiệp,10.862273,106.650757
155,Phú Thọ,10.762574,106.657881
973,Nhà thờ Nữ Vương Hòa Bình,10.856836,106.653825
974,Ngã ba Lê Đức Thọ,10.854149,106.655965
978,Nhà hàng Tư Trì,10.84878,106.656631
900,Bệnh viện Trưng Vương,10.7709217071533,106.658912658691
979,Câu lạc bộ Tennis,10.845888,106.656947
981,Ngã ba Cây Trâm,10.843132,106.657071
898,Đại học Bách Khoa (cổng sau),10.773046,106.661057
902,Ngân hàng Quân Đội,10.775549,106.663017
980,Chợ Cây Trâm,10.838069,106.657843
4628,City Mart,10.835614,106.661164
899,Thành Thái nối dài,10.77768,106.662285
904,Trường THPT Nguyễn Du,10.778545,106.662254
926,Chùa Huỳnh Kim,10.835034,106.663127
901,Ngã tư Đồng Nai,10.781157,106.661758
1665,VKSND Quận Gò Vấp,10.83318,106.666126
987,UBND Quận Gò Vấp,10.830593,106.669414
905,Ngã tư Nguyễn Giản Thanh,10.782587,106.664886
903,Công viên Lê Thị Riêng,10.785224,106.666237
984,Nhà Thờ Xóm Thuốc,10.82918,106.671903
906,Bắc Hải,10.787486,106.663727
986,Xóm thuốc,10.82839,106.673995
907,Ngã ba Bành Văn Trân,10.788692,106.661453
988,Công ty 32,10.827468,106.676688
991,Siêu thị Văn Lang,10.826757,106.678813
910,Ông Tạ,10.78963,106.659694
909,Cư xá Tự Do,10.791448,106.656218
908,Bệnh viện Thống Nhất,10.792649,106.653991
4735,Chợ Tân Sơn Nhất,10.8146266937256,106.677894592285
917,Ngân hàng Quân Đội,10.815528,106.675422
911,Quán Vườn Dừa,10.803641,106.664909
918,Ngã tư Hồng Hà,10.814285,106.669076
990,Công ty Satsco,10.814137,106.666346
913,Sông Đáy,10.806961,106.664673
912,Parkson Trường Sơn,10.8096904754639,106.664939880371
1945,Sân bay Tân Sơn Nhất,10.815592,106.66383
7807,Ga Quốc nội Sân bay Tân Sơn Nhất,10.813927,106.66281
995,Trường Ngô Sỹ Liên,10.810257,106.664673
993,Đoàn tiếp viên,10.813099,106.669146
997,Siêu thị Super Bow,10.808049,106.66449
999,Trần Quốc Hoàn,10.803644,106.663925
4748,Ngã ba Kênh Nhật Bản - Hồng Hà,10.813732,106.674371
4749,Vòng xoay Nguyễn Thái Sơn,10.814006,106.677616
921,Siêu thị Văn Lang,10.826846,106.679209
920,Công ty 32,10.8281,106.675487
996,Bệnh viện Thống Nhất,10.792391,106.654131
922,Nhà thờ Xóm Thuốc,10.829186,106.672606
998,Y tế Phường 4,10.791463,106.655885
923,UBND Quận Gò Vấp,10.83103,106.669232
924,VKSND Quận Gò Vấp,10.8329477310181,106.666793823242
1000,Hồ Bơi Cộng Hòa,10.790114,106.65846
1002,Ông Tạ,10.789261,106.660075
4745,Chùa Huỳnh Kim,10.835203,106.663368
1001,Ngã ba Bành Văn Trân,10.78808,106.662315
925,City Mart,10.835888,106.66104
1003,Công viên Lê Thị Riêng,10.7862358093262,106.66577911377
929,Chợ Cây Trâm,10.838691,106.657811
1004,Công viên Lê Thị Riêng,10.784571,106.665756
928,Ngã ba Cây Trâm,10.843506,106.657167
1005,Ngã tư Nguyễn Giản Thanh,10.781973,106.663696
927,Câu lạc bộ Tenis,10.846104,106.657076
931,Nhà hàng Tư Trì,10.849238,106.656636
1009,Ngã tư Đồng Nai,10.781213,106.661819
1006,Trường THPT Nguyễn Du,10.779224,106.662399
934,Ngã ba Lê Đức Thọ,10.854096,106.656105
1011,Thành Thái nối dài,10.777697,106.662086
2742,Nhà thờ Nữ Vương Hòa Bình,10.856419,106.654528
932,Ngã tư Tân Thới Hiệp,10.861881,106.651199
1007,Ngân hàng Quân Đội,10.775531,106.662819
1013,Đại học Bách Khoa (cổng sau),10.773322,106.661125
935,UBND Quận 12,10.861808,106.654053
1008,Bệnh viện Trưng Vương,10.771244,106.659096
933,Bãi xe Tri Ân,10.861651,106.657127
936,Cầu Bến Cát,10.861335,106.662247
942,Gò Sao,10.861503,106.666458
937,Cây xăng Thạnh Xuân,10.861577,106.671882
100,Nhà sách Phương Nam,10.763115,106.658409
938,Cầu Cả Bốn,10.8616189956665,106.674446105957
101,Lê Đại Hành,10.761842,106.65603
103,Tạ Uyên,10.760535,106.653557
944,Bến xe Ngã tư Ga,10.861472,106.678078
1015,Trạm Trần Quý - Tạ Uyên,10.758068,106.653492
1017,Tạ Uyên,10.755201,106.653696
955,Bố Heo,11.061848,106.421696
959,Bố Heo,11.061632,106.421599
960,cây xăng Sông Châu,11.058347,106.424625
962,văn phòng Ấp Trung Hưng,11.056704,106.426309
5791,Nhà may Bích Liễu,11.050281,106.432242
5792,Kênh Đông,11.046616,106.435804
5793,Trường tiểu học Liên Trung,11.042425,106.439688
5794,Tỉnh lộ 7,11.034949,106.446598
968,Tỉnh lộ 2,11.033801,106.446367
970,đường 703,11.027372,106.44215
957,Bàu điều,11.017505,106.436427
971,Miếu thờ họ Ngô,11.013787,106.434147
961,Ấp Phước Hưng,11.009196,106.430617
947,Trường tiểu học An Phước,11.006873,106.428219
939,Ấp Phước Hưng,11.009501,106.431111
975,trường tiểu học An Phước,11.007131,106.428337
949,Miếu thờ Họ Ngô,11.014161,106.434533
940,Bàu điều,11.017773,106.436716
950,đường 703,11.02663,106.441877
941,Tỉnh Lộ 2,11.034043,106.446742
952,Tỉnh lộ 7,11.03519,106.446757
945,Trường tiểu học Liên Trung,11.041878,106.44045
953,Kênh Đông,11.046548,106.436094
948,Nhà may Bích Liễu,11.050223,106.432596
954,Văn phòng ấp Trung Hưng,11.055483,106.427715
956,Cây xăng Sông Châu,11.05908,106.424217
958,Bố Heo,11.061211,106.422307
4275,Trạm Trung chuyển trên đường Hàm Nghi,10.77079,106.70101
853,Calmette,10.767768,106.699219
856,Chợ Xóm Chiếu,10.764703,106.706504
855,Bưu Điện Quận 4,10.76385,106.70763
857,Đại học Nguyễn Tất Thành,10.7618,106.70932
858,Trường Nguyễn Trãi,10.759423,106.713359
860,Cảng Sài Gòn,10.7579,106.715977
813,Nguyễn Văn Linh,10.689686,106.595943
859,Cầu Tân Thuận 2,10.752424,106.723927
862,Cầu Tân Thuận 2,10.751697,106.724088
812,đường Ấp 2,10.69152,106.602321
4125,Ủy ban Phường Tân Thuận Tây,10.747807,106.721728
815,Đường vào Chợ Bình Điền,10.693745,106.610159
889,Trạm thu phí Chợ Bình Điền,10.698405,106.609359
866,Cầu Lý Phục Man,10.742521,106.721508
863,Nguyễn Thị Thập,10.739585,106.721444
891,Chợ Bình Điền,10.701984,106.608372
893,Trạm thu phí Chợ Bình Điền,10.698547,106.609075
869,Bệnh viện Việt Pháp,10.731063,106.718912
817,Trạm thu phí,10.694493,106.613388
864,Nguyễn Lương Bằng,10.729419,106.712801
814,Cầu Cần Giuộc,10.696591,106.620603
865,Hưng Vượng,10.72934,106.709567
818,Cầu Sập,10.698183,106.626692
872,Sky Garden,10.729234,106.7049
816,Kim Hằng,10.700144,106.631413
2689,Lê Văn Lương,10.72905,106.699315
868,Đại học RMIT,10.728839,106.695061
820,Trịnh Quang Nghị,10.702237,106.634218
873,Trung Sơn,10.728639,106.687117
819,Khu dân cư 13A,10.705109,106.637893
870,Cầu Ông Bé,10.728575,106.683946
822,Chung cư Conic,10.709337,106.643343
821,Cầu Bà Lớn,10.711382,106.645961
875,Phúc Minh,10.728486,106.679472
824,Khu đô thị Hạnh Phúc,10.713791,106.648997
871,Phạm Hùng,10.7284,106.676537
877,Cầu Xóm Củi,10.726741,106.667193
823,Quốc lộ 50,10.717971,106.654356
826,Qua Quốc lộ 50,10.719436,106.656303
874,Chùa Viên Minh,10.723442,106.660316
825,Chùa Viên Minh,10.722198,106.659973
876,Quốc lộ 50,10.720896,106.656861
879,Sau Quốc lộ 50,10.718972,106.654415
828,Cầu Xóm Củi,10.72574,106.666866
830,Sân bóng mi ni,10.727321,106.673234
881,Khu đô thị Hạnh Phúc,10.714903,106.649158
884,Cầu Bà Lớn,10.71174,106.645103
827,Phạm Hùng,10.727517,106.67675
878,Chung cư Conic,10.709506,106.64227
832,Phúc Minh,10.727574,106.680121
880,Khu dân cư 13A,10.707397,106.639502
829,Cầu Ông Bé,10.727785,106.684177
831,Trung Sơn,10.7279,106.687416
882,Trịnh Quang Nghị,10.703602,106.634567
886,Kim Hằng,10.701414,106.631713
833,Đại học RMIT,10.728011,106.695308
834,Lê Văn Lương,10.727985,106.699787
887,Cầu sập,10.69925,106.627235
835,Phòng cháy chữa cháy Quận 7,10.728106,106.704031
883,Cầu Cần Giuộc,10.696855,106.61828
885,Đường vào Chợ Bình Điền,10.695133,106.612183
836,Nguyễn Đức Cảnh,10.728212,106.709341
837,Co.op mart Phú Mỹ Hưng,10.728275,106.711557
838,Cầu Thầy Tiêu,10.728375,106.714829
839,bệnh viện Việt Pháp,10.730309,106.719646
840,Cầu Đa Khoa,10.738937,106.721798
888,Khu dân cư Nguyễn Minh,10.694145,106.60856
892,Căn hộ Hoàng Quân,10.69335,106.605682
842,Cầu Lý Phục Man,10.742031,106.721862
894,Ấp 2,10.692048,106.600937
841,Ủy ban phường Tân Thuận Tây,10.746975,106.721991
895,Quốc lộ 1A,10.69075,106.596169
844,Cầu Tân Thuận 2,10.751307,106.724174
848,Cảng Sài Gòn,10.758443,106.7155
847,Nhà thờ Thánh An Tôn,10.759771,106.713241
850,Đại học Nguyễn Tất Thành,10.761557,106.710194
849,Bưu Điện Quận 4,10.763744,106.707941
852,Chợ Xóm Chiếu,10.764983,106.706471
851,Đoàn Văn Bơ,10.763744,106.704031
1101,ĐH Nông Lâm,10.8674039840698,106.787261962891
1102,Công ty điện tử Samsung,10.867867,106.782201
1103,Đại học Kinh tế -Luật,10.8694267272949,106.77725982666
1104,Đường số 14,10.861588,106.772079
1105,Ngã ba đường 14,10.861013,106.770689
1106,Ngã ba Linh Trung đường số 6,10.860602,106.767921
1107,Tô Vĩnh Diện,10.854312,106.768898
1109,Ngã ba Lê Văn Chí,10.854164,106.772385
1108,Nhà máy nước Thủ Đức,10.853545,106.773216
1110,Đầu đường Lê Văn Chí,10.850766,106.773994
1111,Betong Hải Âu,10.844297,106.77063
1112,UBND Quận 9,10.840745,106.768607
1114,Chợ Hàng Xanh,10.802998,106.710441
1025,Ngã 4 Bình Thái,10.836162,106.76666
1030,UBND quận 9,10.840466,106.769074
1026,Bê tông Hải Âu,10.843834,106.77079
1028,Ngã 4 Thủ Đức,10.847142,106.772974
1031,Đầu đường Lê Văn Chí,10.850485,106.774025
1033,Nhà máy nước Thủ Đức,10.853954,106.773173
1032,Ngã ba Lê Văn Chí,10.854117,106.77195
1035,Tô Vĩnh Diện,10.854728,106.76843
1036,Hoàng Diệu 2,10.857191,106.766396
1037,Ngã ba Linh Trung đường số 6,10.860866,106.768479
1038,Ngã ba đường 14,10.860864,106.770905
1039,Đường số 14,10.861798,106.772301
1040,ĐH Kinh tế Luật,10.8693056106567,106.776725769043
1041,Công ty điện tử Samsung,10.868691,106.778656
1042,ĐH Nông Lâm,10.867122,106.787277
1203,Trường Nam Sài Gòn,10.722751,106.709948
1191,Hồ Huấn Nghiệp,10.774611,106.704583
1244,Tra My,10.729461,106.700479
1195,Chùa Anh Linh,10.76308,106.703183
1246,ĐH Tôn Đức Thắng,10.731537,106.700222
1245,Đại học Cảnh sát,10.733983,106.700002
1193,Trường THCS Vân Đồn,10.761879,106.701488
1247,Siêu thị Lotte,10.741214,106.701193
1196,Hoàng Diệu,10.760735,106.699836
1194,Khánh Hội,10.758864,106.698972
1249,Ngã 3 Tân Quy,10.744229,106.701708
1198,Hồ Bơi Quận 4,10.756414,106.700817
1251,Cầu Kinh Tẻ,10.746832,106.702266
1197,Cầu Kinh Tẻ,10.747496,106.70203
1250,Chung cư Tân Vĩnh,10.758727,106.699315
1253,Hoàng Diệu,10.760082244873,106.699317932129
1201,Ngã 3 Tân Quy,10.744134,106.701472
1252,Trường THCS Vân Đồn,10.761768,106.701724
1199,Siêu thị Lotte,10.741198,106.700946
1254,Chùa Anh Linh,10.763006,106.703414
1202,Đại học Cảnh sát,10.734573,106.699852
1200,ĐH Tôn Đức Thắng,10.731416,106.700007
854,Lê Thị Hồng Gấm,10.7691783905029,106.698333740234
1255,Trường Cao Thắng,10.7719888687134,106.70142364502
1204,Trà My,10.729419,106.700243
1088,Cầu Kênh Lộ,10.598307,106.742727
7771,Bến Đò Ấp 3,10.683698,106.680422
7770,Đào sư Tích,10.696749,106.685057
1118,Nhà Tưởng niệm Liệt sỹ Nhà Bè,10.604189,106.741308
7762,Đào sư Tích,10.70025,106.68643
1119,Chùa Phước Linh,10.610005,106.740074
1121,Công an xã Hiệp Phước,10.617645,106.739157
7760,Đào Sư Tích,10.703201,106.687632
1120,Giáo xứ Tin Mừng,10.622153,106.738159
7163,Trường THCS Lê Thành Công,10.712278,106.697052
1122,Thành Công,10.626002,106.73737
2799,Đào Sư Tích,10.712937,106.701193
1123,Ngã tư Long Hậu,10.631169,106.736104
2798,Ngọc Lâm,10.7083044052124,106.702651977539
1125,Cầu Hiệp Phước,10.634638,106.735364
2801,Bệnh viện huyện Nhà Bè,10.70505,106.703484
7306,Chợ tạm,10.63952,106.733948
2800,Thu Liễu,10.699886,106.704202
1126,Trung tâm dạy nghề,10.643189,106.732677
2803,Phạm Hữu Lầu,10.695667,106.704834
7165,Phạm Hữu Lầu,10.694377,106.707115
1129,Công ty may Đại Sơn,10.64717,106.731384
1130,Chợ Bà Chồi,10.650117,106.730461
7167,Nguyễn Hữu Thọ,10.697498,106.718767
7169,Cầu Phước Long,10.702189,106.721792
1127,Bệnh viện Nhân Tâm,10.653391,106.729415
1128,Trường Long Thới,10.657133,106.728203
7161,Đường 15B,10.70425,106.730644
7593,Trạm radar thời tiết Nhà Bè,10.660503,106.7272
1057,Khu dân cư Kỹ Nguyên,10.704788,106.735198
1055,Chợ Phú Xuân,10.701088,106.73817
1131,Hàng Tre,10.663465,106.726213
1133,Cầu Bà Chiêm,10.671605,106.724576
1147,Nha khoa Khánh Minh,10.6984,106.738785
1134,Cầu Mương Chuối,10.672733,106.729568
1058,Công an Thị trấn Nhà Bè,10.695869,106.739666
1135,Ủy ban huyện Nhà Bè,10.67375,106.734243
1061,Trường Lâm Văn Bền,10.6934499740601,106.740547180176
1136,Trường tiểu học Nguyễn Bình,10.6746,106.737968
1063,Chùa Lá,10.690113,106.741694
1060,Ngân hàng Agribank,10.686992,106.743314
1137,Đình Đức Hưng Thạnh,10.675433,106.741814
1140,Nguyễn Bình,10.67595,106.744034
1065,Chùa Pháp Võ,10.683998,106.74538
1138,Đại lý bảo hiểm xe máy,10.67668,106.747353
1062,Đào Tông Nguyên,10.682021,106.746764
1066,Công Tiến Thọ,10.679275,106.750803
1139,Ngã Ba Bờ Đăng,10.6776,106.751465
1141,Công Tiến Thọ,10.679507,106.75071
1064,Ngã Ba Bờ Đăng,10.6784,106.753196
1069,Ngã Ba Bờ Đăng,10.67775,106.751747
1143,Đào Tông Nguyên,10.681985,106.746994
1142,Chùa Pháp Võ,10.684125,106.745476
1067,Đại lý bảo hiểm xe máy,10.676867,106.747803
1071,Rạch Ngang,10.676117,106.744499
1144,Ngân hàng Agribank,10.687393,106.743202
1068,Đình Đức Hưng Thạnh,10.67545,106.741402
1145,Chùa Lá,10.68996,106.741909
1073,Trường tiểu học Nguyễn Bình,10.67475,106.738251
1146,Trường Lâm Văn Bền,10.693397,106.740723
1150,Công An Thị Trấn Nhà Bè,10.695332,106.740026
1070,Ủy ban huyện Nhà Bè,10.67385,106.734154
1075,Cầu Mương Chuối,10.673017,106.730316
1148,Nha khoa Khánh Minh,10.698273,106.738996
1059,Chợ Phú Xuân,10.70114,106.738315
1072,Cầu Bà Chiêm,10.671817,106.724968
4161,Nguyễn Văn Tạo,10.670545,106.72375
1149,Khu dân cư Kỹ Nguyên,10.704941,106.735246
7162,Đường 15B,10.70435,106.730171
1078,Vòng xoay Long Thới,10.667366,106.724791
7170,Cầu Phước Long,10.702506,106.721985
1074,Hàng Tre,10.663817,106.725929
7592,Trạm radar thời tiết Nhà Bè,10.66065,106.726835
7168,Nguyễn Hữu Thọ,10.697598,106.718633
1076,Trường Long Thới,10.656775,106.728176
7166,Phạm Hữu Lầu,10.694588,106.707104
1077,Bệnh viện Nhân Tâm,10.6529,106.729431
2818,Thu Liễu,10.700297,106.70431
1080,Chợ Bà Chồi,10.650117,106.730316
2820,Bệnh viện huyện Nhà Bè,10.7045927047729,106.703689575195
1079,Công ty may Đại Sơn,10.647491,106.731148
2819,Ngọc Lâm,10.708631,106.702759
1081,Trung tâm dạy nghề,10.642867,106.732651
2822,Đào Sư Tích,10.713317,106.701202
7307,Chợ tạm,10.639414,106.733857
7164,Trường THCS Lê Thành Công,10.712173,106.696537
1082,Cầu Hiệp Phước,10.634253,106.735284
7766,Đào sư Tích,10.705057,106.688147
7772,Đào sư Tích,10.699944,106.68613
1085,Ngã tư Long Hậu,10.630992,106.736023
1084,Thành Công,10.626165,106.737118
7763,Đào sư Tích,10.698626,106.685486
1087,Giáo xứ Tin Mừng,10.622401,106.737939
7767,Đào sư Tích,10.697509,106.685207
1086,Công an xã Hiệp Phước,10.617386,106.739017
7769,Đào sư Tích,10.696749,106.684928
1089,Chùa Phước Linh,10.609535,106.739983
7761,Đào sư Tích,10.688294,106.682589
1091,Nhà Tưởng niệm Liệt sỹ Nhà Bè,10.604421,106.741072
1185,Bến xe buýt Tân Quy,10.984251,106.578176
1206,Ngã tư Tân Quy,10.982633,106.576881
1151,Cây xăng Quân Đội,10.84936,106.611274
1205,Công ty Hongwon,10.9793329238892,106.579299926758
1207,Cây xăng Quang Vinh,10.9760503768921,106.582382202148
1152,Trung tâm Văn hóa Quận 12,10.85466,106.607863
1208,Cửa hàng sữa Việt Xuân,10.973317,106.584953
1154,Liên đoàn lao động Hóc Môn,10.857115,106.6062
1153,Cây xăng Củ Cải,10.859823,106.604306
1211,Trường cấp 2 Tân Thạnh Đông,10.9693,106.58873
1209,Miếu Bà Chúa Xứ,10.966817,106.591049
1156,Ngã 3 Củ Cải,10.862014,106.602697
7800,Trường Đại học Ngoại ngữ - Tin học TP.HCM,10.864569,106.600921
1212,Cây xăng 57,10.963883,106.593834
1155,Trường học Tân Xuân,10.866782,106.599349
1210,Chợ Chiều,10.961017,106.596382
1158,Ngã 3 Bùi Môn,10.870075,106.597075
1214,Sân banh,10.9552001953125,106.600814819336
1216,Quán Hoa Sứ,10.952767,106.602386
1160,Ngã 3 Bùi Môn,10.871397,106.596147
4592,Sài Gòn Viễn Đông,10.875093,106.593424
1213,Trường tiểu học Tân Thạnh Đông 1,10.9481,106.605453
1157,Ngã tư Giếng Nước,10.877482,106.591748
1218,Mẫu giáo Tân Thạnh Đông,10.9448003768921,106.605285644531
3232,Cầu Tân Thạnh Đông,10.940117,106.60429
4586,Ngã tư Giếng nước,10.878077,106.591845
7608,Công ty Ngọc Châu,10.932275,106.603147
1162,Bệnh viện Hóc Môn,10.88226,106.594098
1164,Trường mầm non 23-11,10.884952,106.595213
1215,Ngã 3 Bình Mỹ,10.921883,106.600868
1222,Cây xăng Tài Lộc 3,10.914961,106.600202
7704,Trung tâm Văn hóa huyện Hóc Môn,10.886137,106.595793
1217,Ngã 3 Ông Trác,10.911,106.599741
1161,Thị trấn Hóc Môn,10.887902,106.596238
1166,Chợ Hóc Môn,10.890441,106.596673
1219,Công ty Nam Ho,10.906902,106.599548
1163,Nhà trẻ Phước An,10.892601,106.597268
1224,Tân Hiệp 35,10.901687,106.599757
1168,nhà văn hóa thiếu nhi huyện Hóc Môn,10.896272,106.598754
1225,Lê Thị Lơ,10.898843,106.599677
1165,Nhà văn hóa Thiếu nhi huyện Hóc Môn,10.89583,106.598454
1167,Lê Thị Lơ,10.898564,106.599768
1170,Tân Hiệp 35,10.901319,106.600052
1221,Nhà trẻ Phước An,10.893312,106.597397
1223,Chợ Hóc Môn,10.890146,106.596512
1220,Công ty Nam Ho,10.906639,106.599741
1169,Ngã 3 Ông Trác,10.910474,106.599934
4746,Thị trần Hóc Môn,10.887738,106.596093
1227,Mần non 23-11,10.884699,106.594945
1172,Cây xăng Tài Lộc 3,10.915436,106.600454
4747,Bệnh viện Hóc Môn,10.881786,106.593733
1171,Ngã 3 Bình Mỹ,10.921235,106.600846
7609,Công ty Ngọc Châu,10.93158,106.603126
1228,Ngã tư Giếng Nước,10.878356,106.592054
1230,Ngã tư giếng nước,10.877023,106.591684
3233,Cầu Tân Thạnh Đông,10.939685,106.604446
1173,Trường mẫu giáo Tân Thạnh Đông,10.943783,106.605003
1232,Cây xăng Hoàng Anh 1,10.874969,106.593078
1174,Trường tiểu học Tân Thạnh Đông 1,10.948313,106.605492
4588,Công ty Suất ăn công nghiệp,10.872947,106.594666
1231,Ngã 3 Bùi Môn,10.869954,106.596758
1176,Quán Hoa Sứ,10.952363,106.602788
1235,Trường học Tân Xuân,10.866919,106.598904
1175,San banh,10.955767,106.600517
1177,UBND Tân Thạnh Đông,10.961137,106.596431
1233,Ngân Hàng Aribank,10.862546,106.601978
1178,Cây xăng 57,10.964283,106.593536
1234,Ngã 3 Củ Cải,10.860602,106.603324
3635,Chùa Linh Sơn,10.85662,106.606178
1179,Chợ Hố Bom,10.9663,106.591652
1180,Trường cấp 2 Tân Thạnh Đông,10.9695,106.588654
1393,Ngã tư Trung Chánh,10.853595,106.608152
1238,Cư xá Bà Điểm,10.849713,106.610641
1181,Cửa hàng sữa Việt Xuân,10.973817,106.584602
1182,Cây xăng Quang Vinh,10.9765672683716,106.582015991211
1183,Công ty Hongwon,10.9800672531128,106.578720092773
1184,Ngã tư Tân Quy,10.982237,106.577179
7617,chợ Củ Chi,10.970495,106.482453
1297,Trống Đồng,10.773046,106.690813
1387,Trường trung học cơ sở Củ Chi,10.967041,106.48903
1296,Bệnh viện Mắt - Bình Dân - Da Liễu,10.776461,106.684467
7135,Điện lực Củ Chi - Ngã 3 Việt Kiều,10.9602,106.503161
1299,Công trường Dân Chủ,10.778516,106.680481
1298,Ngã Ba Chí Hòa,10.780703,106.676345
3649,Công ty Sài Gòn Cáp,10.956818,106.509694
3654,Ngã tư Quán đôi,10.947954,106.522923
1300,Công viên Lê Thị Riêng,10.785814,106.66693
1384,trường Tân Phú Trung,10.93918,106.540223
3658,Chợ chiều Tân Phú Trung,10.931917,106.552808
1301,Ngã ba Hoàng Hoa Thám,10.796053,106.647747
1388,Cầu An Hạ,10.916262,106.564212
1390,Ngã 3 Hồng Châu,10.899638,106.575891
1302,Ngã tư Tân Kỳ Tân Quý,10.804732,106.635629
2263,Ngã 3 Lam Sơn,10.892279,106.581003
1395,Ngã tư Hóc Môn,10.883308,106.587263
1303,Ngã tư Hóc Môn,10.884615,106.586732
2293,Chợ Võ Thành Trang,10.801275,106.637517
1305,Ngã 3 Hồng Châu,10.899733,106.576191
1392,Ngã ba Hoàng Hoa Thám,10.796606,106.646218
3634,Công ty Sakos,10.903752,106.57337
1307,Chợ chiều Tân Phú Trung,10.931343,106.553714
1306,Trường Tân Phú Trung,10.939433,106.540335
1399,Chùa Bửu Đà,10.78124,106.675063
1394,Công trường Dân Chủ,10.7782049179077,106.680702209473
1309,Ngã tư Quán đôi,10.947133,106.524635
3643,Hồng Đào,10.95003,106.520369
1400,Bệnh viện Mắt - Bình Dân - Da Liễu,10.776202,106.684338
1396,Trống Đồng,10.772345,106.691499
3648,Điện lực Củ Chi - Ngã 3 Việt Kiều,10.961317,106.501617
1294,Bến xe Bình Mỹ,10.977542,106.643794
1313,Cầu Phú Cường,10.977236,106.643708
1263,Trung tâm văn hóa Củ Chi,10.9689,106.487421
1312,Ngã 3 Bến đò,10.974171,106.642458
1265,Trường trung cấp nghề Củ Chi,10.97069,106.490613
1315,Ngã 3 Bình Mỹ,10.97335,106.638153
1314,Công ty Gum Gard,10.973239,106.633515
1259,Ủy Ban nhân dân huyện Củ Chi,10.972928,106.49455
1316,Cầu Bà Bếp,10.973967,106.628448
1262,Ủy Ban nhân dân thị Trấn Củ Chi,10.975593,106.499153
1317,Cổng A Khu công nghiệp Đông Nam,10.975404,106.623983
1268,Can Trường,10.97781,106.503015
1264,Tỉnh lộ 2,10.981067,106.508751
1318,Ngã 3 Lò Chén,10.977717,106.620201
1270,Cây xăng Hoàng Sơn,10.98274,106.512752
1319,"Ngã 3 Bù Na, chợ Hòa Phú",10.978767,106.618332
7652,UBND xã Hòa Phú,10.979474,106.615512
1272,Trần Văn Chẩm,10.983777,106.516877
1266,Trường tiểu học Phước Vĩnh An,10.98462,106.520122
5830,Chùa Phước Hòa,10.980122,106.612337
5829,Trường Hòa Phú,10.980738,106.60871
1274,Cây Bài,10.984693,106.525143
1267,Ấp 6,10.984651,106.529735
1320,Khu công nghiệp Cơ Khí Ô tô,10.98156,106.603968
5828,Văn phòng Ấp 4,10.982255,106.599505
1276,Công viên Nước Củ Chi,10.985157,106.53415
1323,Ngã 3 Trung An,10.982518,106.595283
1269,Cây xăng petrolimet 58,10.985825,106.539928
1321,Công ty SAEHWAVINA,10.982824,106.590375
1271,Ấp 5 (Thành Đạt),10.984377,106.545163
1324,Công ty Samho,10.983324,106.583197
1278,Đồng Mã Vôi,10.984202,106.551338
1273,Trường tiểu học Tân Thạnh Tây,10.984388,106.554165
1322,Trung tâm thương mại Satra Mall,10.983608,106.578771
1280,UBND xã Tân Thạnh Tây,10.984772,106.560618
1325,Ngã tư Tân Quy,10.983814,106.575542
1326,Nguyễn Kim Cương,10.984146,106.570913
1275,Công ty Thái Hà,10.984314,106.565977
1327,Công ty Thái Hà,10.98443,106.56682
1277,Nguyễn Kim Cương,10.983945,106.571572
1328,Trạm y tế Tân Thạnh Tây,10.984883,106.560924
1279,Ngã tư Tân Quy,10.983735,106.574834
1283,Trường PTTH Trung Phú,10.98335,106.580037
1329,Trường tiểu học Tân Thạnh Tây,10.984514,106.553575
1281,Công ty Samho,10.983245,106.582382
1330,Đồng Mã Vôi,10.984061,106.549659
1331,Ấp 5,10.985141,106.543972
1284,Công ty SAEHWAVINA,10.982734,106.589441
1332,Cây xăng Petrolimet 58,10.985978,106.540405
1282,Ngã 3 Trung An,10.98245,106.594076
1334,Công viên nước Củ Chi,10.985246,106.533828
1285,Cây xăng Hoàng Phi,10.982176,106.5987
1286,Khu công nghiệp cơ khí Ô tô,10.981528,106.603314
1333,Ấp 6,10.984714,106.529006
1287,Trường Hòa Phú,10.980691,106.608254
1338,Cây Bài,10.984899,106.524891
1335,Trường tiểu học Phước Vĩnh An,10.985025,106.521286
1288,Chùa Phước Hòa,10.980017,106.612031
1339,Trần Văn Chẩm,10.984288,106.518223
1289,"Ngã 3 Bù Na, chợ Hòa Phú",10.979316,106.6157
1336,Cây xăng Hoàng Sơn,10.982808,106.512473
1291,Ngã 3 Lò Chén,10.977078,106.620941
1341,Tỉnh lộ 2,10.98126,106.508793
1295,Công A Khu công nghiệp Đông Nam,10.975441,106.623623
1290,Cầu Bà Bếp,10.973955,106.627888
1337,Can Trường,10.978205,106.503439
1343,Ủy Ban nhân dân thị Trấn Củ Chi,10.976188,106.499947
1293,Công ty Gum Gard,10.973097,106.633853
1342,Ủy Ban nhân dân huyện Củ Chi,10.973113,106.49447
1292,Ngã 3 Bình Mỹ,10.973266,106.638971
5824,Ngã 3 bến đò,10.974156,106.642731
1340,Trường trung cấp Nghề Củ Chi,10.971159,106.491176
1310,Cầu Phú Cường,10.977531,106.643783
1345,Trung tâm văn hóa Củ Chi,10.969195,106.487818
1240,Mỹ Thái 2,10.721022,106.726738
1241,Trường Nam Sài Gòn,10.725255,106.724174
1243,Trần Văn Trà,10.724101,106.720993
7207,Đường N,10.72361,106.716465
7187,Family mart,10.723515,106.715183
7188,Hight land,10.72214,106.712828
7071,Hà Huy Tập,10.726757,106.708692
1257,Trường Nam Sài Gòn,10.722588,106.709899
1260,Trần Văn Trà,10.724074,106.72125
1261,Trường Nam Sài Gòn,10.725118,106.723793
1258,Mỹ Thái 2,10.720885,106.726454
1054,Phú Xuân,10.70071,106.73373
1364,Phạm Hữu Lầu,10.705547,106.737649
1363,Chùa Pháp Hoa,10.708926,106.737381
1367,An Chánh Dương,10.711134,106.737242
1365,Trường Ngô Quyền,10.712795,106.737177
1370,Ủy ban phường Phú Mỹ,10.713991,106.734817
1368,Mầm non Cánh Thiên Thần,10.713469,106.732655
1372,Mỹ Khang,10.715599,106.730096
1369,Nam Viên,10.71825,106.728476
1371,Tân Trào,10.728538,106.722114
1375,Bệnh viện Tim Tâm Đức,10.733488,106.71904
1377,Chợ Tân Mỹ,10.735532,106.718252
1373,Lâm Văn Bền,10.738384,106.717485
1374,Mai Văn Vĩnh,10.738621,106.713333
1378,Đường số 38,10.738964,106.710484
1376,Khu dân cư Tân Quy Đông,10.739401,106.707614
1380,Lotte Mark,10.740208,106.70369
1382,Đường số 15,10.744471,106.70432
4424,Hồ Bơi Quận 4,10.756867,106.700705
1051,Bộ Công an,10.760672,106.683453
1347,Phan Văn Trị,10.758169,106.684381
1379,Cầu Ông Lãnh,10.766253,106.696612
1385,Trường Nguyễn Thái Học,10.767602,106.696236
1344,Cầu Ông Lãnh,10.766785,106.696011
1381,Nhà Sách Nguyễn Văn Cừ,10.757567,106.684937
1021,Nguyễn Trãi,10.760314,106.683769
1346,Đường số 15,10.744576,106.704216
1348,Nguyễn Thị Thập,10.7397241592407,106.704170227051
1350,Khu dân cư Tân Quy Đông,10.739164,106.707743
1349,Đường số 38,10.738716,106.710747
1351,Mai Văn Vĩnh,10.738368,106.714003
1352,Lâm Văn Bền,10.738152,106.717522
1354,Chợ Tân Mỹ,10.735522,106.717962
1353,Bệnh viện Tim Tâm Đức,10.733045,106.718928
1355,Tân Trào,10.7282218933105,106.721870422363
1356,Nam Viên,10.718065,106.728192
1010,Bến xe Chợ Lớn,10.753657,106.652559
1357,Mỹ Khang,10.715451,106.729807
1359,Mầm non Cánh Thiên Thần,10.713271,106.732742
1361,Ủy ban phường Phú Mỹ,10.713764,106.734973
1362,Trường Ngô Quyền,10.712974,106.736904
1358,An Chánh Dương,10.711002,106.737016
1360,Chùa Pháp Hoa,10.708958,106.737152
1366,Phạm Hữu Lầu,10.705626,106.737427
1417,Ba Tơ,10.702021,106.620802
1414,Ba Tơ,10.708167,106.623704
1419,Giáo xứ Bình Sơn,10.710449,106.624895
1415,Trường Nguyễn Trung Ngạn,10.712552,106.628698
1451,Trần Hưng Đạo,10.768461,106.694984
1421,Thánh Đường Bình Thuận,10.714118,106.630452
1423,Bến Đò Rạch Cát,10.715983,106.63204
1424,Bến đò Hội Đồng,10.719805,106.634116
1418,Chợ Phú Lợi,10.722915,106.635522
1420,Trường Bình An,10.724464,106.636283
1422,Tòa thánh Cao đài Huỳnh Quang Sắt,10.728712,106.638483
1426,Nhà thờ Bình An,10.731753,106.641321
4700,Chợ Mười Giờ,10.733451,106.643965
1444,Lotte Mart,10.740144,106.701525
1425,Chợ Mười Giờ,10.735348,106.647098
1428,Nhà thờ Bình Thái,10.737029,106.649909
1430,Chợ Lò Than,10.739238,106.653616
1453,Quận Đoàn 7,10.745957,106.704519
1445,Phan Huy Thục,10.748861,106.704943
1427,Cầu Hiệp Ân,10.741409,106.659254
1454,Ngã 3 Tân Quy,10.751468,106.705124
1429,Công an Quận 8,10.742869,106.667333
1455,Ngã 3 Tân Quy,10.751839,106.704508
1434,Chợ Phạm Thế Hiển,10.743744,106.672391
1446,Ủy ban Phường Tân Hưng,10.751786,106.701347
1431,Cao Lỗ,10.744598,106.674972
1433,Ngân hàng Sacombank,10.745583,106.677053
1456,chùa Kiều Đàm,10.751776,106.697998
1450,Bệnh viện Tân Hưng,10.751731,106.694519
1435,Cầu Mật,10.746679,106.67899
1461,Cầu Rạch Ông,10.751496,106.692969
1438,Công viên Phường 2,10.749104,106.683533
1452,Cầu Nguyễn Văn Cừ,10.750859,106.68724
1436,Cầu Nguyễn Văn Cừ,10.750469,106.686602
1437,Cầu Rạch Ông,10.7512912750244,106.69261932373
1449,Cầu Chữ Y,10.749931,106.684767
1463,Âu Dương Lân,10.74796,106.680937
1439,Bệnh viện Tân Hưng,10.751644,106.694836
1457,Cầu Mật,10.746822,106.67885
1441,chùa Kiều Đàm,10.751654624939,106.698341369629
1458,Ngân hàng Sacombank,10.745757,106.676924
1440,Ủy ban Phường Tân Hưng,10.751691,106.701713
1464,Cao Lỗ,10.744081,106.672922
1447,Ngã 3 Tân Quy,10.751726,106.704552
1466,Chợ Phạm Thế Hiển,10.743501,106.670047
1442,Ngã 3 Tân Quy,10.751333,106.705018
1448,Phan Huy Thực,10.748961,106.704825
1468,Công an Quận 8,10.743027,106.667161
1443,Quận Đoàn 7,10.746068,106.704422
1459,Quận ủy Quận 8,10.742252,106.662987
1460,Cầu Nhị Thiên Đường,10.741562,106.659173
7681,Lotte Mart,10.740339,106.701735
1462,Chợ Lò Than,10.739433,106.653482
1465,Nhà thờ Bình Thái,10.73714,106.649796
1467,Chợ Mười Giờ,10.735248,106.646631
1469,Nhà thờ Bình An,10.73353,106.643735
1470,Cầu Bà Tàng,10.73061,106.63977
1472,Tòa thánh Cao đài Huỳnh Quang Sắt,10.728886,106.638381
1471,Trường Bình An,10.724501,106.636069
1473,Chợ Phú Lợi,10.722951,106.635275
1474,Bến Đò Hội Đồng,10.719973,106.633848
3080,Trần Hưng Đạo,10.768434,106.695335
1477,Bến Đò Rạch Cát,10.715983,106.631799
1475,Thánh Đường Bình Thuận,10.713928,106.630035
1476,Trường Nguyễn Trung Ngạn,10.711944,106.62748
1480,Giáo xứ Bình Sơn,10.710586,106.624809
1521,KDL BCR,10.8037567138672,106.839057922363
1482,Bến xe buýt Khu chế xuất Linh Trung 2,10.891215,106.71764
1478,Khu Công nghiệp Đồng an,10.893886,106.721122
7158,Đường số 10,10.80803,106.831323
1518,Chợ Long Trường,10.806213,106.821077
1479,Chợ Đồng An,10.892311,106.723694
1481,Ngã 3 Linh Trung 2,10.889835,106.727688
1523,Ngã 3 Long Trường,10.806144,106.817027
1520,Câu cá Lan Anh,10.809005,106.815814
1483,Nhà hàng Song Sinh,10.884615,106.728734
1525,Quán Tây Tăng Long,10.813089,106.813899
1486,UBND Phường Bình Chiểu,10.8819379806519,106.72925567627
1484,Chợ Bình Chiểu,10.879025,106.730472
1522,Trường cấp 3 Long Trường,10.817091,106.810913
1487,Cây Xăng Bình Chiểu,10.876154,106.731845
1514,Trạm xăng số 5,10.819902,106.809683
1489,Ngã Tư Gò Dưa,10.873826,106.73207
1527,Ngã 3 Lò Lu,10.823848,106.808224
1524,Ngã tư Samsung,10.831325,106.803707
4459,Cầu vượt Gò Dưa,10.867351,106.733792
1485,Phường Tam Bình,10.868147,106.735611
1529,Dốc xóm Bến,10.836525,106.799362
1492,Điện lực Thủ Đức,10.8668756484985,106.738143920898
1526,Ngã 3 Xóm Bến,10.839997,106.79684
1531,Khu phố 4,10.842611,106.798444
1488,Công ty Minh Nghệ,10.865981,106.740358
1528,Ngã 3 Nghêu sò,10.846004,106.798847
1494,Chùa Vạn Hạnh,10.864554,106.741839
1530,Đại Học GTVT,10.845566,106.794421
1490,Chùa Vạn Đức,10.862968,106.742713
1535,Bệnh viện Quận 9,10.844607,106.790349
1496,Nhà thờ Tam Hà,10.860908,106.745465
1532,Chợ Tăng Nhơn Phú B,10.844923,106.788209
1491,Chợ Tam Hà,10.859586,106.747761
1498,Ngã Ba Linh Đông,10.855843,106.75045
1537,Chợ Hiệp Phú,10.84427,106.784084
1534,Trạm y tế Phường Hiệp Phú,10.844381,106.781723
1493,Bồn nước,10.852854,106.752037
1500,Chợ Thủ Đức,10.851198,106.75428
1536,Nhà sách Thành Nghĩa,10.845176,106.780377
1539,Bệnh viện 7C-Trường Quân y 2,10.846799,106.777512
1538,Siêu thị Coopmart,10.848411,106.775045
1502,Siêu thị Coopmart,10.848192,106.775032
1504,Bệnh viện 7C-Trường Quân y 2,10.846262,106.778124
1495,Nhà sách Thành Nghĩa,10.84486,106.780563
1497,Trạm y tế Phường Hiệp Phú,10.844114,106.782028
1540,Nhà Sách Thủ Đức,10.851977,106.753235
1542,Ngã Ba Linh Đông,10.855645,106.75069
1499,Chợ Hiệp Phú,10.844128,106.784261
1543,Ngã Ba Tam Hà - Tô Ngọc Vân,10.860263,106.747826
1506,Chợ Tăng Nhơn Phú,10.844813,106.787973
1501,Bệnh viện Quận 9,10.8446,106.790977
1545,Bệnh viện Thủ Đức,10.863057,106.745872
1508,Đại Học GTVT,10.845276,106.793922
1544,Đường Phú Châu,10.862831,106.744709
1547,Chùa  Vạn Đức,10.863242,106.742622
1505,Ngã 3 Nghêu sò,10.845685,106.798767
1507,Khu phố 4,10.842879,106.79838
1546,Chùa Vạn Hạnh,10.86497,106.741928
1510,Ngã 3 Xóm Bến,10.840382,106.797184
1550,Công ty Minh Nghệ,10.866192,106.739929
1548,Điện lực Thủ Đức,10.866601,106.738564
1509,Dốc xóm Bến,10.836178,106.799408
1512,Ngã tư Samsung,10.831241,106.803589
1552,UBND Phường Tam Bình,10.868458,106.735382
1511,Ngã ba Lò Lu,10.823885,106.808084
1549,Ngã Tư Gò Dưa,10.874105,106.732119
1515,Trạm xăng số 5,10.819593,106.809624
1551,Cây Xăng Bình Chiểu,10.876981,106.732113
1513,Trường cấp 3 Long Trường,10.817035,106.810707
1554,Chợ Bình Chiểu,10.879494,106.730316
1557,UBND Phường Bình Chiểu,10.881665,106.72941
1517,Quán Tây Tăng Long,10.813004,106.813766
1553,Nhà hàng Song Sinh,10.88442,106.728981
7160,Câu cá Lan Anh,10.809105,106.815627
1519,Ngã 3 Long Trường,10.806007,106.816962
1555,Ngã 3 Linh Trung 2,10.889891,106.727898
1516,Chợ Long Trường,10.806039,106.821106
1558,Chợ Đồng An,10.891993,106.724464
1556,Khu Công nghiệp Đồng an,10.893744,106.721674
3264,Đường số 10,10.807841,106.83098
1403,Bến xe Miền Đông,10.814733,106.711294
1408,Ngã năm Liệt Sĩ,10.81204,106.710624
1410,Chợ Phường 25,10.8083038330078,106.71467590332
1405,Đại học Ngoại Thương,10.806602,106.716047
1407,Trường ĐH Giao thông Vận tải Tp. HCM,10.804795,106.715875
148,Vòng xoay Cây Gõ,10.755201,106.644314
150,Thái Phiên,10.756082,106.645993
149,Lò Siêu,10.757257,106.648171
151,Xóm đất,10.758469,106.650301
152,Hà Tôn Quyền,10.759454,106.652108
156,Ngã ba Nguyễn Kim,10.76434,106.661078
157,Nhà thờ tin lành Nguyễn Tri Phương,10.766232,106.664627
1398,Chợ Phường 10,10.767623,106.673357
1404,Ngã ba Hồ Thị Kỷ,10.767196,106.675572
1402,Nhà khách Chính Phủ,10.766522,106.677799
1406,Ngã sáu Cộng Hòa,10.76571,106.680449
1409,Nhà khách Chính phủ,10.765963,106.680363
1413,Nguyễn Đình Chiểu,10.7666797637939,106.678100585938
1416,Hồ Thị Kỷ,10.7674226760864,106.675666809082
1411,Chợ Phường 10,10.767865,106.673051
1412,Bệnh viện Nhi Đồng 1,10.7680292129517,106.669738769531
98,Ngã ba Nguyễn Kim,10.764972,106.661743
105,Xóm Đất,10.758648,106.650156
104,Hàn Hải Nguyên,10.757357,106.647838
107,Thái Phiên,10.756348,106.646034
106,Vòng xoay Cây Gõ,10.755207,106.643858
1615,Bến xe buýt Hiệp Thành,10.8777561187744,106.641738891602
1618,Trường Mầm non Họa Mi 2,10.877308,106.640773
1620,Nhà Văn hóa Lao động Quận 12,10.878145,106.63888
1622,Hiệp Thành 11,10.880495,106.634685
1675,Cây Gõ,10.755328,106.643486
6836,KCN Tân Thới Hiệp,10.881375,106.633108
1625,Ngã ba Đông Quang,10.88305,106.630077
1678,UBND phường 2,10.757536,106.643874
1677,Trường Tiểu học Thái Phiên,10.759729,106.64426
1627,Cây xăng Sài Gòn Petro,10.881949,106.628349
6837,Trường Tiểu học Nguyễn Trãi,10.878799,106.626102
1680,Đội Cung,10.761849,106.644592
1631,Tân Chánh Hiệp 39,10.876886,106.624417
1679,Công an Phường 10,10.763865,106.644928
1603,Trường Phùng Hưng,10.764519,106.642265
1628,Tân Chánh Hiệp 07,10.87514,106.622914
1682,Trường Lê Quý Đôn,10.767508,106.64296
1632,Cây xăng Hiệp Thành,10.872335,106.620308
6840,Bùi Văn Ngữ,10.870575,106.618667
1681,Trạm Đăng Kiểm,10.770437,106.645073
1684,Âu Cơ,10.7738313674927,106.6474609375
2256,Tô Ký,10.867994,106.616119
1683,Ngã Tư Âu Cơ,10.775206,106.648471
1635,Trường Nguyễn Hữu Cầu,10.866466,106.61481
1634,Trung Mỹ - Tân Xuân,10.864132,106.613125
1686,Chùa Giác Lâm,10.77821,106.64992
1636,Giáo xứ Trung Chánh,10.860908,106.610851
1685,Ni sư Huỳnh Liên,10.781066,106.650093
1688,Công Thọ,10.784291,106.651009
1637,Trường CĐ GTVT,10.857947,106.60893
1638,Trung tâm văn hóa Quận 12,10.856556,106.607997
1687,Cây xăng Lạc Long Quân,10.788412,106.651851
1690,Trung tâm Văn hóa Quận 12,10.855824,106.60768
1691,Trường CĐ Giao thông vận tải,10.858284,106.609306
1692,Giáo xứ Trung Chánh,10.861261,106.611232
1693,Trung Mỹ - Tân Xuân,10.864253,106.613383
1694,Trường Nguyễn Hữu Cầu,10.866635,106.615089
1639,Cây xăng Lạc Long Quân,10.788628,106.651776
1695,Tô Ký,10.868284,106.616639
1640,Công Thọ,10.784233,106.650848
1641,Ni sư Huỳnh Liên,10.781511,106.649994
1696,Bùi Văn Ngữ,10.870038,106.618409
1642,Chùa Giác Lâm,10.777941,106.649786
1698,Tân Chánh Hiệp 10,10.872946,106.621145
1697,Tân Chánh Hiệp 07,10.875322,106.623307
1643,Ngã tư Lạc Long Quân,10.77547,106.648396
6839,Tân Chánh Hiệp 39,10.877308,106.625082
1644,Âu Cơ,10.774116,106.647484
1700,Trường Tiểu học Nguyễn Trãi,10.878846,106.626348
1646,Trạm Đăng Kiểm,10.770237,106.644716
1645,Trường Lê Quý Đôn,10.767818,106.642989
1699,Cây xăng Sài Gòn Petro,10.88226,106.628741
1703,Ngã ba Đông Quang,10.882839,106.630243
1572,Cổng 1 Đầm Sen,10.765199,106.642128
1776,Công an Phường 10,10.763649,106.644706
1624,KCN Tân Thới Hiệp,10.881333,106.632797
1777,Đội Cung,10.761968,106.644459
1701,Hiệp Thành 11,10.880437,106.634513
1779,Trường Tiểu học Thái Phiên,10.759449,106.644051
1704,Nhà Văn hóa Lao động Quận 12,10.87814,106.638579
1647,UBND phường 2,10.75736,106.643654
1706,Trường Mầm non Họa Mi 2,10.877192,106.640645
1649,Cây Gõ,10.755244,106.643203
141,Mũi Tàu Phú Lâm,10.745362,106.624466
143,Đồng Quê,10.746311,106.628092
145,Bình Phú,10.747623,106.633526
142,Nguyễn Văn Luông,10.74826,106.636192
144,Chợ Hoa,10.748756,106.638204
146,Chợ Minh Phụng,10.750869,106.642619
147,Vòng xoay Cây Gõ,10.753468,106.643096
1772,Trường Đại học Kỹ Thuật Công nghệ,10.808426,106.672107
1773,Cây xăng Quân đội,10.807467,106.668422
1775,Bãi xe buýt Phổ Quang,10.805359,106.666555
1774,Rạp Tân Sơn Nhất,10.802321,106.665756
109,Vòng xoay Cây Gõ,10.753264,106.642929
108,Chợ Minh Phụng,10.750922,106.642495
111,Cầu Hậu Giang,10.749736,106.641503
110,Chợ Hoa,10.748714,106.637437
113,Nguyễn Văn Luông,10.748039,106.634663
112,Bình Phú,10.747697,106.633312
114,Đồng Quê,10.746511,106.628382
1744,Hiệp Thành 31,10.876739,106.643965
1743,Lê Văn Khương,10.876181,106.648112
7255,Nguyễn Thị Kiêu,10.875438,106.651921
7252,Trường trung học cơ sở Nguyễn Trung Trực,10.875738,106.654796
7253,Bia Heniken Việt Nam,10.8689422607422,106.654327392578
7254,Ủy Ban nhân dân Quận 12,10.863347,106.65464
1648,Trường TH Nguyễn Đình Chiểu,10.803546,106.698409
7248,Cầu Bến Phân,10.858469,106.667059
3174,Bệnh viện Ung Bứu,10.805823,106.69695
2623,Nhà Thờ Hà Nội,10.851082,106.665106
2110,Bệnh Viện Gia Định,10.803984,106.694884
2758,Chùa Tiên Long,10.847985,106.6645
2038,Ngã Tư Xóm Gà,10.811666,106.69085
2759,Trường Đại học Hồng Bàng,10.844581,106.664661
2760,UBND Phường 16,10.8425,106.66464
2043,Chùa Già Lam,10.814522,106.68974
1754,Ngã ba Nguyễn Văn Lượng,10.839223,106.665245
2047,Ngã Ba Nguyên Hồng,10.817294,106.689
2046,Trường Đại học Công nghiệp,10.821598,106.688774
1755,Điện Lực Gò Vấp,10.838575,106.665809
1757,Lotte Mart,10.838527,106.671147
2729,Vincom Plaza,10.827184,106.688409
1756,Ngã sáu Gò Vấp,10.838475,106.674564
2731,PCCC Quận Gò Vấp,10.828496,106.684976
1758,Đài Liệt sĩ,10.83847,106.675911
1759,UBND Phường 17,10.838475,106.679435
1655,Ngã ba Phạm Huy Thông,10.833907,106.684762
1760,Trường văn thư lưu trữ,10.8373,106.68061
1660,XP Garden,10.836583,106.683394
4743,XP Garden,10.836172,106.683458
1657,Trường Văn Thư lưu trữ,10.837015,106.680894
1763,Ngã ba Phạm Huy Thông,10.833843,106.68466
1662,UBND Phường 17,10.838601,106.679311
1659,Đài Liệt sĩ,10.838612,106.676366
1764,Chợ Bến Cát,10.829871,106.688297
1765,Vincom Plaza,10.82682,106.689756
1664,Ngã sáu Gò Vấp,10.838633,106.674183
1661,Lotte Mart,10.83867,106.670798
1666,Điện Lực Gò Vấp,10.838701,106.666608
2101,Trường Đại học Công nghiệp,10.822394,106.688254
2104,Ngã Ba Nguyên Hồng,10.817789,106.689091
4744,UBND Phường 16,10.842126,106.664811
2106,Chùa Già Lam,10.81517,106.689016
2741,Trường Đại học Hồng Bàng,10.845503,106.664833
2105,Ngã Tư Xóm Gà,10.812019,106.690426
4726,Chùa Tiên Long,10.847995,106.66465
2632,Nhà Thờ Hà Nội,10.851836,106.665316
2039,Bệnh Viện Gia Định,10.803488,106.695013
3173,Bệnh viện Ung Bứu,10.805433,106.695753
7245,Cầu Bến Phân,10.8579,106.666946
1771,Trường TH Nguyễn Đình Chiểu,10.803278,106.698328
7246,Tịnh xá Ngọc Phước,10.860091,106.668942
7249,UBND Quận 12,10.863277,106.654839
7250,Bia Heniken Việt Nam,10.869179,106.654501
7251,Trường THCS Nguyễn Trung Trực,10.875501,106.655014
7256,Nguyễn Thị Kiêu,10.875559,106.652259
1676,Lê Văn Khương,10.876249,106.648509
303,Cổng ra - Bến xe Miền Đông 2,10.81232,106.712608
6835,Hiệp Thành 31,10.876876,106.64418
1936,Khu dân cư Trung Sơn,10.7339878082275,106.689041137695
1943,Thảo Loan PLAZA,10.731042,106.689247
1938,Thảo Loan Plaza,10.7316112518311,106.689598083496
1940,Vòng xoay cầu Him Lam,10.737783,106.689766
1946,Trường Rạch Ông,10.744877,106.689343
1942,Trường Dương Bá Trạc,10.7465372085571,106.689270019531
30,Trạm Trung chuyển trên đường Hàm Nghi,10.771001,106.700356
7271,Trạm Trung chuyển trên đường Hàm Nghi,10.771233,106.700002
1944,Khách sạn New world,10.77129,106.695824
1401,Nguyễn Thị Nghĩa,10.770854,106.693588
1947,Trường Dương Bá Trạc,10.747844,106.688544
1951,Trường Rạch Ông,10.745009,106.689059
1953,Vòng xoay cầu Him Lam,10.738057,106.689413
1805,Đường 44,10.723932,106.622685
1022,Bến xe buýt Đầm Sen,10.767834,106.639733
7585,Trường Nguyễn Thị Định,10.724675,106.622969
1043,Ngã tư Hòa Bình,10.76698,106.641571
1029,Bãi xe buýt Đầm Sen,10.767196,106.641176
1616,Trường Hòa Bình,10.768361,106.639261
1604,Đầm Sen,10.769367,106.63707
1617,Chùa Huệ Quang,10.769599,106.634604
1619,Ngã 4 Hòa Bình,10.77001,106.632839
1621,Trung Tâm Mua Sắm,10.771277,106.629044
1798,Chùa Sùng Quang,10.723284,106.610566
1605,Tô Hiệu,10.772234,106.626145
1851,Chợ Khu phố 2,10.726035,106.60885
1606,Ngã 4 bốn xã,10.773267,106.6231
1852,Ngã tư An Lạc,10.729012,106.606857
1781,Chợ Ngã tư 4 xã,10.77322,106.620297
1853,Siêu thị Big C,10.732233,106.604934
1782,Cửa hàng điện thoại di động,10.771939,106.617696
1855,Hẻm Sinco Hồ Ngọc Lãm,10.734642,106.603302
1780,Đình Tân Khai,10.770811,106.615008
1783,Trường tiểu học Bình Trị 1,10.767813,106.609231
1856,Trạm Điện Quốc lộ 1A,10.737657,106.601364
1854,Công ty Hai Thành,10.742307,106.598442
1784,Hương lộ 2,10.766664,106.606607
1857,Công ty Pouyuen,10.747634,106.595078
1785,Hẻm 814,10.766933,106.599559
1787,Sửa xe Quyết,10.768334,106.595213
1858,KCN Tân Tạo,10.752967,106.592692
1859,Ngã 4 Bà Hom - Nhà sách Tân Tạo,10.7551641464233,106.59236907959
1786,990,10.769178,106.593288
1789,Nghĩa trang Bình TÂn,10.768545,106.590935
1861,Trạm xăng số 5,10.757884,106.591858
1788,Bà Hom,10.762401,106.590683
1863,Chung cư Tân Mai,10.763075,106.590927
1791,Ngã 4 Bà Hom - Nhà sách Tân Tạo,10.7580261230469,106.591491699219
1865,Hương lộ 2,10.768476,106.591148
1790,Khu Công nghiệp Tân Tạo,10.752793,106.592392
1860,Quốc lộ 1A,10.769257,106.59288
1792,Công ty Pouyuen,10.746899,106.595367
1862,Bệnh viện Bình Tân,10.768387,106.594838
1864,Bệnh viện Bình Tân,10.767349,106.597477
1793,Công ty Hai Thành,10.743526,106.597519
7179,Bệnh viện Bình Tân,10.764814,106.603013
1794,Trạm Điện Quốc lộ 1A,10.740001,106.599724
1795,Công an Quận Bình Tân,10.736204,106.602081
1866,Thạch cao Thanh Tài,10.766184,106.605835
1797,Siêu thị Big C,10.731063,106.605358
1868,Trường Bình Trị,10.768187,106.610207
1869,497,10.771649,106.61739
1796,Ngã tư An Lạc,10.728676,106.606819
1870,Chợ Ngã tư 4 Xã,10.77323,106.620619
1799,Chợ Khu phố 2,10.726019,106.608459
1850,Chùa Sùng Quang,10.72283,106.610577
1568,Ngã 4 bốn xã,10.773193,106.622926
1563,Tô Hiệu,10.772165,106.6259
1565,Trâm Tâm Mua Sắm,10.771296,106.628569
1570,Ngã 4 Hòa Bình,10.769973,106.632539
1567,Trường Hoàng Diệu,10.769583,106.633966
1571,Thuỷ Tạ,10.768814,106.637866
7584,Trường Nguyễn Thị Định,10.724538,106.622797
1871,Tân Vạn,10.8980417251587,106.827987670898
1186,Công ty TNHH Thuận Thành Tâm,10.892685,106.822804
1188,Công ty Dosan,10.888961,106.820047
1187,Công ty Cp Đức Khải,10.879241,106.812918
572,Đại học An Ninh Nhân Dân,10.871402,106.806657
576,Trường giáo dục Quốc phòng,10.868605,106.804147
1907,Đài tưởng niệm,10.765404,106.672826
92,Cao Thắng,10.771164,106.67738
1911,Cư Xá Đô Thành,10.773248,106.67981
1912,Bệnh viện Bình Dân,10.774641,106.68145
1913,Bệnh viện Mắt TPHCM,10.778255,106.685471
1917,Sở Khoa học và Công nghệ,10.780286,106.687621
1920,Phạm Ngọc Thạch,10.784965,106.692375
1915,Công Viên Lê Văn Tám,10.786934,106.694313
1924,Đinh Tiên Hoàng,10.789477,106.696783
1916,Trạm Điện Nguyễn Cửu Vân,10.797286,106.704567
1918,Đại học Hồng Bàng,10.799873,106.707528
1925,Vòng xoay Hàng Xanh,10.80108,106.710269
1873,Vòng xoay Hàng Xanh,10.80146,106.709969
1872,Đại học Hồng Bàng,10.799747,106.706268
1875,Trạm Điện Nguyễn Cửu Vân,10.796775,106.703247
1874,Cầu Điện Biên Phủ,10.795089,106.701654
1877,Nguyễn Văn Thủ,10.791216,106.700569
1879,UBND Phường Dakao,10.78885,106.699738
1876,Mạc Đỉnh Chi,10.786848,106.697861
1878,Hai Bà Trưng,10.785293,106.696457
1881,Đại học Kinh tế,10.782981,106.694191
1880,Coop Mart Nguyễn Đình Chiểu,10.780828,106.6922
1883,Trương Định,10.77824,106.689789
1882,Cách mạng Tháng Tám,10.77465,106.686394
1889,Chợ Vườn Chuối,10.772213,106.684086
1884,Cao thắng,10.769731,106.681672
1890,Chợ Bàn Cờ,10.768289,106.680359
1885,Lý Thái Tổ,10.76709,106.67926
1891,Đài tưởng niệm,10.766427,106.67347
7695,Bến xe Miền Đông mới,10.8804054260254,106.814865112305
1097,Công ty Nam Hàn,10.884067,106.816818
1098,Khu tưởng niệm các Vua Hùng,10.887623,106.81943
1100,Trạm xăng Hiệp Phú,10.893459,106.823743
1099,Ngã 3 Tân Vạn,10.897837,106.829606
7700,Chung Cư Samsora Riverside,10.8996610641479,106.833656311035
1926,Trạm măng,10.840398,106.612535
1921,Hồng Mộc,10.836167,106.60797
1928,Ngã tư Bà Điểm,10.832674,106.605804
4750,Công ty Lộc Ích,10.827568,106.6034
1930,Quang Châu,10.823311,106.602554
1923,Vĩ Phong,10.821082,106.60202
1932,Gò Mây,10.818021,106.601379
1927,Phú Cường,10.804263,106.598412
1934,Hương Quê,10.799784,106.597427
1929,Phát Đạt,10.791742,106.595779
1937,Khu phố 5,10.787811,106.594925
1931,Tân Kỳ Tân Quý (Hoàng Gia Phát),10.784723,106.594276
1939,Thiên Phúc Học,10.781952,106.593697
1941,Ao Đôi,10.779601,106.593262
1933,Hương lộ 2,10.775476,106.592377
1893,Hương lộ 2,10.772055,106.591965
1935,Qua ngã tư Hương lộ 2,10.77234,106.591667
1886,Ao Đôi,10.77548,106.592667
1887,Khu phố 1,10.77957,106.593506
1895,Sơn Expo,10.781994,106.59404
1888,Tân Kỳ Tân Quý,10.784544,106.594604
1898,Tân Kỳ Tân Quý,10.787306,106.595161
1892,Phát Đạt,10.791437,106.596062
1900,Trạm cân số 1,10.799468,106.597801
1894,Khu phố 3 (T H P),10.803514,106.598724
1902,Cửa hàng Thảo Vân (Thành Vịnh),10.80813,106.599731
1896,Gò Mây,10.813484,106.600754
1904,Hội quán (Sài Gòn JSC),10.817604,106.601593
1897,Nồi Hơi,10.820871,106.602333
1906,Quang Châu,10.823305,106.602783
1899,Lộc Ích,10.827779,106.603855
1908,Ngã tư Bà Điểm,10.833269,106.606559
1901,Qua ngã tư Bà Điểm,10.834981,106.607616
1910,Trạm Rác,10.83789,106.610202
1903,Trạm măng,10.839755,106.612304
1905,Cầu vượt ngã tư An Sương,10.841483,106.614311
7264,Trạm Trung chuyển trên đường Hàm Nghi,10.770985,106.700758
2692,Diamond Plaza,10.780898,106.699058
2029,Khách sạn Sofitel,10.78417,106.702303
1096,Đại học Khoa học xã hội nhân văn,10.785778,106.702663
2062,Trường ĐH Lao động Xã hội,10.866255,106.615861
2030,SVĐ Hoa Lư,10.7872,106.701027
2085,Doanh trại Quân Đội,10.863358,106.616714
2031,Trường Trung cấp kỹ thuật nông nghiệp Tp HCM,10.789292,106.698747
2086,Chợ Tân Chánh Hiệp,10.859976,106.617562
2033,Cầu Bông,10.796032,106.696225
2087,Chiếc nón Kỳ Diệu,10.858295,106.618463
2727,Bệnh viện Bình Thạnh,10.79864,106.696419
2088,Điện lực Hóc Môn,10.85653,106.621016
2109,Lăng Ông Bà Chiểu,10.80107,106.696579
2089,Đông Bắc,10.855118,106.623881
2090,Công viên Phần mềm Quang Trung,10.853248,106.625914
2091,Cầu vượt Quang Trung,10.84946,106.632174
2035,Hồ bơi Đại Đồng,10.806355,106.695131
2056,Chợ Cầu,10.848148,106.634068
2041,Ngã Tư Bình Hòa,10.80871,106.694418
2093,Chợ Cầu,10.844987,106.638901
2036,Chùa Hưng Gia Tự,10.810033,106.692637
2094,Ngã tư Cầu cống,10.84367,106.640822
2095,Công ty Đồng Tâm,10.841973,106.643359
2098,Làng SOS,10.840909,106.64492
2096,Ngã ba Tân Sơn,10.839012,106.647736
2040,Chùa Bà Thiên Hậu,10.825292,106.685035
2099,Dệt may Phương Đông,10.838469,106.649839
2042,Chi cục Thuế Quận Gò Vấp,10.826362,106.682852
2097,Trường THPT Nguyễn Công Trứ,10.837495,106.653702
4627,Chợ Hạnh Thông Tây,10.836552,106.657376
2049,Chợ Hạnh Thông Tây,10.836894,106.657076
2044,Trường THPT Nguyễn Công Trứ,10.838,106.652629
2100,Chi cục Thuế Quận Gò Vấp,10.826267,106.68267
2045,Dệt may Phương Đông,10.838538,106.650499
2103,Chùa Bà Thiên Hậu,10.82526,106.684821
2051,Làng SOS,10.839929,106.646508
2048,Công ty Đồng Tâm,10.842273,106.643322
2053,Ngã tư Cầu cống,10.844007,106.640747
2050,Chợ Cầu,10.845514,106.638488
2092,Chợ Cầu,10.848253,106.634363
2108,Chùa Hưng Gia Tự,10.809379,106.693071
2052,Cầu vượt Quang Trung,10.849823,106.632185
2107,Hồ bơi Đại Đồng,10.806992,106.694954
2057,Công viên Phần mềm Quang Trung,10.852726,106.626531
2054,Đông Bắc,10.855803,106.622819
2055,Điện lực Hóc Môn,10.856751,106.620823
2058,Chiếc nón Kỳ Diệu,10.857984,106.619069
2037,Lăng Ông Bà Chiểu,10.801807,106.696435
2034,Bệnh viện Bình Thạnh,10.797571,106.69615
2059,Chợ Tân Chánh Hiệp,10.860497,106.617588
2112,Cầu Bông,10.7952470779419,106.696014404297
2060,Doanh trại Quân Đội,10.862915,106.61709
2061,Trường ĐH Lao động Xã hội,10.865634,106.616242
2111,Công viên Lê Văn Tám,10.788896,106.692818
2696,Diamond Plaza,10.780914,106.698704
1979,Bến xe buýt Tân Phú,10.809163,106.633537
7129,Trường Chinh,10.812629699707,106.63257598877
4219,CoopMart Phú Lâm,10.754664,106.633971
1977,Lưu Chí Hiếu,10.811671,106.62748
2653,Trung tâm Văn Hóa Quận Tân Phú,10.810607,106.626906
1948,Chợ Phú Lâm,10.757215,106.631649
2655,Lê Trọng Tấn,10.807314,106.627228
1955,Trường Tiểu học Trương Công Định,10.759628,106.628956
1949,Chợ Tân Hòa Đông,10.75985,106.626611
2000,Nguyễn Hữu Tiến,10.806785,106.625366
1956,Ấp Chiến Lược,10.761136,106.622792
2005,Trạm Bờ Bao Tân Thắng,10.807464,106.622177
1950,Phường Bình Trị Đông,10.763223,106.620499
2002,Chợ Sơn Kỳ,10.806144,106.621708
1958,Ao cá Cây Bàng,10.76497,106.618546
2006,Ủy ban phường Sơn Kỳ,10.803341,106.622014
2004,Tân Quý,10.799231,106.618629
1952,Mỹ Hảo,10.766564,106.616918
2022,Mỹ Hảo,10.767049,106.616274
2007,Trường Tiểu Học Tân Quý,10.798385,106.616493
1954,Tân Khai,10.768761,106.614504
2009,Trạm Bình Long,10.797263,106.614571
2008,Lò Thiêu,10.795939,106.612221
1960,Lê Thái,10.767929,106.613487
1804,UBND Phường Bình Hưng Hòa,10.794702,106.610229
1957,Làng nướng Tây Nguyên,10.765879,106.613136
1808,Phòng khám Đa khoa,10.792528,106.606636
1959,Chợ Bình Trị Đông cũ,10.762324,106.610107
1810,Bưu điện,10.788981,106.6007
1961,Quán Cau Xanh,10.765223,106.609901
1964,Đất Mới,10.76687,106.609825
2011,Ngã 3 Ao Đôi,10.775607,106.600991
2010,Công ty Đại Càng Phát,10.77235,106.601849
2013,Phòng tiếp dân,10.768224,106.60311
1963,Phòng tiếp dân,10.768097,106.603239
1966,Công ty Đại Càng Phát,10.771929,106.602053
2012,Đất Mới,10.766664,106.609535
1968,Ngã 3 Áo Đôi,10.77479,106.601313
2015,Quán Cau Xanh,10.765465,106.609634
2014,Chợ Bình Trị Đông cũ,10.762595,106.609863
1739,Mã Lò,10.78817,106.599548
1741,Ủy ban phường Bình Hưng Hòa,10.794422,106.6101
2017,Chợ Bình Trị Đông mới,10.76277,106.613121
1965,Nghĩa trang Bình Hưng Hòa,10.795908,106.612541
2016,Làng nướng Tây Nguyên,10.765926,106.613251
2021,Lê Thái,10.767774,106.613541
1967,Trạm Bình Long,10.796944,106.614241
1970,Trường Tiểu Học Tân Quý,10.79844,106.61688
2019,Ao cá Cây Bàng,10.765296,106.618065
2024,Bình Trị Đông,10.763444,106.62011
1969,Siêu thị Aeon,10.801196,106.618731
1971,Ủy ban phường Sơn Kỳ,10.803061,106.621875
2020,Ấp Chiến Lược,10.761963,106.62181
2025,Chợ Tân Hòa Đông,10.759829,106.625887
1972,Chợ Sơn Kỳ,10.805907,106.621896
2023,Trường Tiểu học Trương Công Định,10.759523,106.628215
1974,Trạm Bờ Bao Tân Thắng,10.80731,106.622368
1975,Nguyễn Hữu Tiến,10.806767,106.624886
2026,Chợ Phú Lâm,10.757294,106.631402
2604,Lê Trọng Tấn,10.807414,106.627341
2027,Coop Mart Phú Lâm,10.754616,106.633875
2599,Trung tâm Văn Hóa Quận Tân Phú,10.810438,106.627078
1998,Lưu Chí Hiếu,10.811777,106.628162
7130,Trường Chinh,10.812483,106.632442
2140,Bến xe buýt Bình Khánh,10.673856,106.766263
2174,Phà Bình Khánh,10.673856,106.765426
2173,Chùa Bà Châu Đốc 2,10.674931,106.762626
3689,Trường Lê Văn Hưu,10.675985,106.759847
2176,Việt Long Sài Gòn,10.676882,106.757594
2177,Ủy ban xã Phú Xuân,10.678115,106.754354
2114,Tòa nhà Bitexco,10.770685,106.704792
2115,Cục Hải Quan Thành Phố,10.770637,106.705785
2116,Đại học Luật,10.767288,106.706032
843,Khu chế xuất Tân Thuận,10.752498,106.727414
2122,Khu chế xuất Tân Thuận,10.75166,106.728428
2123,Bùi Văn Ba,10.749151,106.728643
2125,Nhà tưởng niệm Bác Hồ,10.745061,106.729163
2124,Trường Huỳnh Tấn Phát,10.742901,106.729485
2126,Nghĩa trang liệt sỹ Nhà Bè,10.740381,106.729876
2130,Cầu Phú Mỹ,10.736803,106.730434
2175,Hoàng Quốc Việt,10.714624,106.737081
2178,Nhà sách Nguyễn Văn Cừ,10.716732,106.736974
2186,Khu phố 2,10.734294,106.730751
2127,Phú Thuận,10.731337,106.731652
2179,Trường Nguyễn Văn Hưởng,10.718656,106.736882
2180,Ban chỉ huy quân sự Quận 7,10.721054,106.73656
2128,Gò Ô Môi,10.728433,106.732677
2132,Khu phố 3,10.724986,106.734302
2181,Mầm non Ban Mai,10.723141,106.735525
2182,Khu phố 3,10.725028,106.734554
2131,Mầm non Ban Mai,10.722836,106.735412
2135,Ban chỉ huy Quân sự Quận 7,10.720833,106.736378
2129,Gò Ô Môi,10.728654,106.732838
2133,Trường Nguyễn Văn Hưởng,10.71884,106.736593
2183,Phú Thuận,10.731727,106.731834
2136,Nhà sách Nguyễn Văn Cừ,10.7166,106.736732
2184,Cầu Phú Mỹ,10.736639,106.730681
2134,Hoàng Quốc Việt,10.714782,106.736813
2189,Nghĩa Trang Liệt Sĩ Nhà Bè,10.739944,106.730188
2185,Trường Nguyễn Hữu Cảnh,10.742621,106.729796
2187,Nhà tưởng niệm Bác Hồ,10.745077,106.72941
2190,Bùi Văn Ba,10.749441,106.728868
2188,Khu chế xuất Tân Thuận,10.751892,106.72868
2138,Ủy ban xã Phú Xuân,10.677925,106.754419
2137,Việt Long Sài Gòn,10.676897,106.757192
2141,Trường Lê Văn Hưu,10.675922,106.759611
2139,Chùa Bà Châu Đốc 2,10.674752,106.76268
2144,Phà Bình Khánh,10.673761,106.765233
2145,Thảo Nguyên,10.865335,106.793938
2142,Trung tâm kho vận Linh Xuân,10.870254,106.774932
2147,Nghĩa trang Thành phố,10.871313,106.771671
2143,Công ty Nissan,10.872419,106.768248
2083,Vietcombank,10.871597,106.769643
7615,Bảo tàng Lịch sử Việt Nam,10.786658,106.704352
2084,Nghĩa trang TP,10.870507,106.773039
2146,Khách sạn Sofitel,10.78428,106.702118
7646,Nhà văn hoá sinh viên,10.874542,106.799995
2172,KCN LÊ MINH XUÂN,10.744065,106.539509
2226,Bưu điện Láng Le Bàu Cò,10.743227,106.538361
2148,Bến xe Quận 8,10.732776,106.656051
2231,Kinh B,10.738357,106.536173
2149,Công an Bình Hưng,10.7308,106.655971
2151,Mầm non Ánh Dương,10.72789,106.65589
2167,Kênh 9,10.733735,106.534955
2169,Khu di tích Láng Le Bàu Cò,10.727516,106.535212
2150,Giáo xứ Bình Hưng,10.725292,106.655831
2153,Bình Hưng,10.72058,106.655686
2229,Láng Le Bàu Cò,10.72166,106.536157
2233,Trạm cầu,10.719531,106.539735
2230,Xây dựng Mạnh Dũng,10.717812,106.542803
2235,Trường mẫu giáo Tân nhựt,10.716136,106.545775
2234,Ủy ban nhân dân xã Tân Nhật,10.713664,106.550158
2237,Bưu điện Tân Nhựt,10.711171,106.554723
2236,Thế Lữ,10.707887,106.560313
3938,Cầu Chợ Đệm,10.693007,106.580992
670,Tân Túc,10.694082,106.584576
2241,Thiên Giang,10.695021,106.58766
2243,Trung tâm văn hóa huyện Bình Chánh,10.695801,106.590192
2242,Bệnh viện huyện Bình Chánh,10.69618,106.59303
2245,Chùa Tam Bửu,10.696591,106.596099
2155,Chùa Tam Bửu,10.696713,106.5962
2152,Bệnh viện Bình Chánh,10.696259,106.592746
2154,Trung tâm văn hóa huyện Bình Chánh,10.69599,106.590321
2157,Thiên Giang,10.6952,106.587655
4597,Tân Túc,10.694135,106.584318
2156,Cầu Chợ Đệm,10.693112,106.580885
2158,Ngã 3 Trường học,10.704187,106.567769
2160,Thế Lữ,10.707829,106.560602
2163,Bưu điện Tân Nhựt,10.710781,106.555624
2162,Ủy Ban xã Tân nHựt,10.714044,106.549702
2165,Trường mẫu giáo Tân Nhựt,10.716395,106.545523
2164,Xây dựng Mạnh Dũng,10.718002,106.542685
2166,Trạm cầu,10.719742,106.53966
2247,Bình Hưng,10.720848,106.655837
2168,Láng Le Bàu Cò,10.721618,106.53643
2244,Giáo xứ Bình Hưng,10.724923,106.655944
2246,Mầm non ánh Dương,10.7277,106.656089
2171,Kênh B,10.738115,106.536217
2248,Công an Bình Hưng,10.730905,106.656105
2249,Bến xe Quận 8,10.733134,106.656239
2170,Bưu điện Láng Le Bàu Cò,10.742827,106.538281
2227,Bến xe buýt Cầu Lớn,10.871845,106.535561
7711,Truường THCS Nguyễn Văn Bứa,10.871508,106.536543
3967,Trường Nhị Xuân,10.871176,106.538174
2225,Trạm lò muối,10.870501,106.542106
2223,Thái Sơn,10.869911,106.546204
1023,Chợ Phú Thọ,10.762522,106.653798
2267,Trường Nguyễn Văn Cừ,10.869195,106.551011
1018,Công viên Lãnh Binh Thăng,10.76307,106.650746
4587,Ngã 3 Giồng,10.867636,106.559127
2269,Dương Công Khi,10.866108,106.562501
1024,Nhà văn hóa Quận 11,10.763813,106.649389
1027,Chợ Lãnh Binh Thăng,10.76512,106.646926
4656,Xuân Thới Thượng 14,10.864612,106.565816
1020,Tòa án nhân dân Quận 11,10.76659,106.643082
1159,Chợ Xuân Thới Thượng,10.863495,106.567876
7710,Trường THCS Xuân Thới Thượng,10.862936,106.569684
2275,Trường tiểu học Ngã 3 Giồng,10.860645,106.574716
2191,Ngã 3 Khuông Việt - Hòa Bình,10.770205,106.637802
4717,Trường Xuân Thới Thượng,10.857273,106.578718
2280,Xuân Thới Thượng 28,10.854417,106.582124
2192,Trạm chùa,10.772919,106.637625
1226,Phạm Văn Sáng,10.850967,106.586169
2193,Trạm cầu số 2,10.776429,106.639599
1229,Chợ Đại Hải,10.848785,106.588808
2194,Trạm Lê Ngã,10.777789,106.641487
7311,Âu Cơ,10.78085,106.64264
4165,Kênh tiêu Bà Điểm,10.845276,106.593293
4682,Cây xăng Tây Lân,10.842121,106.596748
2199,Bệnh Viện Tân Phú,10.7829904556274,106.642784118652
2195,Ngã tư Thoại Ngọc Hầu,10.785335,106.641991
4683,Đình Tân Thới Nhất,10.84103,106.598019
2196,Bàu Cát 8,10.78729,106.641182
2284,Chợ Bà Điểm,10.839502,106.59996
2198,Chợ Bàu Cát,10.791806,106.641678
2286,Nguyễn Văn Cừ,10.837326,106.602638
2278,Ngã tư Bà Điểm,10.835255,106.605502
2201,Bàu Cát 2,10.793495,106.642349
2203,Ngã ba Trường Chinh,10.797017,106.643445
2209,Nhà sách Nhân Văn,10.833417,106.608356
2200,Ngã ba Ấp Bắc,10.799642,106.641036
2288,Trường Nghệ thuật và Du Lịch,10.830977,106.61253
2205,Chợ Võ Thành Trang,10.801365,106.637823
2285,Chùa Bửu Tạng,10.829428,106.615598
2290,Công ty Thuận Kiều,10.828569,106.618549
2202,Siêu thị Big C,10.806202,106.635184
2289,Công ty thời trang Sài Gòn,10.827384,106.623961
2207,Công ty thời trang Sài Gòn,10.827637,106.623516
2208,Công ty Thuận Kiều,10.828469,106.619707
2292,Siêu thị BigC,10.806212,106.634773
2206,Chùa Bửu Tạng,10.829418,106.616049
2291,Trạm Tân Kỳ Tân Quý,10.8048,106.635269
2204,Trường Nghệ thuật và Du Lịch,10.831746,106.611435
2296,Ngã ba Trương Công Định,10.799115,106.641557
2287,Nhà sách Nhân Văn,10.833928,106.607863
2295,Ngã ba Trường Chinh,10.797381,106.643434
2210,Ngã tư Bà Điểm,10.835008,106.606237
2298,Bàu Cát 2,10.793972,106.642433
2212,Nguyễn Văn Cừ,10.837342,106.602809
2297,Chợ Bàu Cát,10.791608,106.641472
2211,Chợ Bà Điểm,10.839987,106.599693
2213,Đình Tân Thới Nhất,10.840835,106.598572
2396,Nguyễn Hồng Đào,10.789466,106.640253
2299,Trạm Ngã 4 Thoại Ngọc Hầu,10.786605,106.641235
2215,Cây xăng Tây Lân,10.842105,106.596973
2300,Bệnh viện Quân Tân Phú,10.783712,106.642334
2273,Kênh tiêu Bà Điểm,10.846209,106.592376
2301,Âu Cơ,10.781172,106.642828
2217,Chợ Đại Hải,10.848585,106.589355
2214,Phạm Văn Sáng,10.851536,106.585793
2302,Lê Ngã,10.777941,106.641439
2303,Trạm cầu số 2,10.776271,106.639405
4659,Xuân Thới Thượng 28,10.854739,106.581953
4657,Trường Xuân Thới Thượng,10.857594,106.578552
2304,Trạm Chùa,10.772677,106.637506
2305,Ngã 3 Hòa Bình - Khuông Việt,10.770379,106.6377
4658,Trường tiểu học Ngã 3 Giồng,10.86026,106.575365
3971,Chợ Xuân Thới Thượng,10.863279,106.568998
4715,Xuân Thới Thượng 14,10.864838,106.565634
1569,Bãi xe buýt Đầm Sen,10.767929,106.639776
2220,Dương Công Khi,10.866166,106.562667
2221,Ngã 3 Giồng,10.867599,106.559476
1044,Tòa án nhân dân Quận 11,10.766342,106.643349
1045,Ông Ích Khiêm,10.765737,106.645157
2222,Trường PTTH Nguyễn Văn Cừ,10.869479,106.550753
1046,Chợ Lãnh Binh Thăng,10.765057,106.646755
3949,Thái Sơn,10.870006,106.54673
3939,Lò Muối,10.870702,106.541677
1047,Công viên Lãnh Binh Thăng,10.763238,106.650167
1048,Trường Trung học Phú Thọ,10.760904,106.65264
2265,trường tiểu học Nhị Xuân,10.871223,106.538576
2479,Chợ nông sản Thủ Đức,10.868857383728,106.729431152344
2467,Cát Lái,10.762,106.782669
2472,Sân bóng đá mini,10.765378,106.780726
2480,Khu Dân Cư Phố Đông,10.76775,106.778017
2482,UBND Phường Cát Lái,10.7734937667847,106.770645141602
2474,Chợ Cây Xoài,10.775828,106.767154
4378,Đường 12,10.867209,106.733465
4170,Chợ Cây Xoài,10.777253,106.767057
4171,"257, Lê Văn Thịnh",10.778374,106.768898
4172,Bệnh viện Quận 2,10.78201,106.76953
4173,"23-25, Lê Văn Thịnh",10.78671,106.769183
4002,Lê Văn Thịnh,10.788514,106.77021
4004,Nhà Sách Nguyễn Văn Cừ,10.788264,106.772842
2530,Đường Phú Châu,10.862947,106.745079
2509,Bệnh viện Thủ Đức,10.863108,106.745682
3996,Đường số 6,10.788046,106.7752
3997,Trường Nguyễn Văn Trỗi,10.788806,106.778122
2540,Ngã  Ba Tam Hà - Tô Ngọc Vân,10.860026,106.747833
4006,Đỗ Xuân Hợp,10.789444,106.779427
4187,Cầu Ông Kỳ 2,10.791632,106.781718
4188,Khu dân cư Sông Giồng,10.794251,106.781294
4189,Đường 655,10.801565,106.779111
7678,Trường CĐ Sư phạm Trung ương 2 (CS2),10.806112,106.782528
4191,Đường D3,10.805812,106.777904
4192,Cầu Nam Lý,10.811693,106.776016
4533,Đình Bình Thái,10.813842,106.775383
3265,Chùa Thiện Minh,10.816356,106.774465
4175,Đường 98,10.830946,106.767801
4193,Đại lộ 2,10.818379,106.773269
4176,Chợ Phước Long B,10.829033,106.76842
4114,UBND Phường Phước Long B,10.826657,106.768768
4194,Trường Cao đẳng Kỹ thuật Công nghệ Tp.HCM,10.820808,106.772529
4177,Đại học văn Hoá cơ sở 2,10.822942,106.770447
4195,Đại học văn Hoá cơ sở 2,10.823416,106.769954
4178,Trường Cao đẳng Kỹ thuật Công nghệ Tp.HCM,10.82138,106.771934
4196,UBND phường Phước Long B,10.82574,106.769042
4179,Đại lộ 2,10.818131,106.773167
4197,Chợ Phước Long B,10.829649,106.768377
4198,Đường 98,10.831367,106.767889
3199,Chùa Thiên Minh,10.816072,106.774406
4180,Đình Bình Thái,10.813323,106.775401
4181,Cầu Nam Lý,10.810981,106.776019
4184,Đường 655,10.800692,106.779162
4185,Khu dân cư Sông Giồng,10.793607711792,106.781242370605
4186,Cầu Ông Kỳ 2,10.791063,106.781541
4062,Đỗ Xuân Hợp,10.789751,106.779674
4058,Trường Nguyễn Văn Trỗi,10.788671,106.777557
4064,Đường số 6,10.78818,106.775613
4066,Nhà Sách Nguyễn Văn Cừ,10.788402,106.773167
4068,Lê Văn Thịnh,10.788639,106.770764
4166,"36, Lê Văn Thịnh",10.787043,106.76907
4167,"Bệnh viện Quận 2, Lê Văn Thịnh",10.78237,106.769279
4168,"176, Lê Văn Thịnh",10.778574,106.768747
4169,Chợ Cây Xoài,10.777373,106.766815
2531,Chợ Cây Xoài,10.775916,106.766617
2528,UBND Phường Cát Lái,10.774142,106.769348
2532,Khu Dân Cư Phố Đông,10.767412,106.778081
2538,Sân bóng đá mini,10.765362,106.780463
2533,Trường Hải Quân,10.763244,106.782909
2327,KDC VĨNH LỘC A,10.811535,106.570686
2367,KDC Vĩnh Lộc A,10.809158,106.572393
2366,Ngã 5 Vĩnh Lộc,10.811023,106.575338
2369,Rạng Đông,10.81144,106.578895
2370,Minh Nhật,10.805859,106.578053
2371,Đường 3B,10.800005,106.577543
2373,Đường Liên Ấp,10.794172,106.576481
4773,Cây xăng,10.751112,106.652538
2375,Chợ Liên Ấp 123,10.791031,106.580162
2372,Liên Ấp 123,10.788391,106.580925
1778,Ngân hàng Thương Tín,10.749699,106.648241
2374,Thạch Dừa,10.785019,106.582077
2377,Ấp 123,10.781677,106.583214
2376,Bến Lội,10.777925,106.584518
2378,Trạm 1A,10.775117,106.585625
2379,Bến Lội,10.77235,106.58622
2380,Tây Lân,10.770764,106.589034
2381,Ngã 4 Bà Hom,10.755855,106.594154
2382,Trạm 34,10.75497,106.598061
2306,Kinh Dương Vương,10.741721,106.614235
2383,Đại Hòa,10.754559,106.60199
7141,Aeon mall,10.74436,106.613249
2385,Đường 40,10.753373,106.604019
2932,Tên Lửa,10.752471,106.610137
2384,Chùa Liên Hoa,10.751834,106.60724
2386,Đường số 32,10.751739,106.609601
2308,Đường số 34,10.75216,106.608177
2902,Tên Lửa,10.752561,106.610266
2309,Chùa Liên Hoa,10.752197,106.605316
2311,Đường 40,10.753062,106.604075
7140,Đường số 19,10.75322,106.612744
2389,Aeon mall Bình Tân,10.744081,106.613249
2310,Bông Sen - Khang Mỹ Lạc,10.7547416687012,106.601699829102
2312,Đạt Hoà,10.7551975250244,106.597770690918
2391,Kinh Dương Vương,10.741424,106.614227
2313,Ngã 4 Bà Hom,10.7560710906982,106.593795776367
2314,Tây Lân,10.770843,106.58902
2315,Tây Lân,10.772511,106.586441
2316,Trạm 1A,10.775132,106.585823
2317,Liên Hiệp Thành,10.778152,106.584618
2318,Liên Hiệp Thành,10.782184,106.583405
2319,Minh Quy,10.78485,106.582405
2320,Phòng khám,10.788328,106.581268
2390,Ngân hàng Thương Tín,10.749552,106.648101
2321,Chợ Liên Ấp 123,10.790799,106.58036
2322,Đường 3B,10.799663,106.577682
2323,Minh Nhật,10.805406,106.578096
2324,Rạng Đông,10.811145,106.578932
2325,Chợ mới Vĩnh Lộc,10.811376,106.575655
2326,Khu dân cư Đồng Danh,10.809332,106.572458
2272,Bãi xe buýt 19/5,10.893196,106.583473
2328,Dân Thắng,10.888139,106.583911
2329,Ngã tư Hóc Môn,10.884794,106.5878
2330,Ngân hàng BIDV,10.886938,106.590691
2331,Ngân hàng Nông Nghiệp,10.888007,106.593808
2332,Công An Hóc Môn,10.888076,106.598985
2333,Ngã 3 chùa,10.887928,106.60113
2334,Cây xăng,10.886516,106.604145
2335,Hoa Viên Trúc Lâm,10.88404,106.606543
2336,Cống Đôi,10.881412,106.608453
1651,Cây Xăng 178,10.80656,106.696976
2337,Cây kiểng Bảy Châu,10.874189,106.612068
